{
"type": "FeatureCollection",
"features": [
{ "type": "Feature", "id": 1, "properties": { "gsId": 6489, "name": "academy at palumbo", "type": "public", "gradeRange": "12-Sep", "enrollment": 857, "gsRating": 8, "parentRating": 4, "city": "Philadelphia", "state": "PA", "districtId": 397, "district": "Philadelphia City School District", "districtNCESId": 4218990, "address": "1100 Catharine St, \rPhiladelphia, PA  19147", "phone": "(215) 351-7618", "fax": null, "website": "http:\/\/webgui.phila.k12.pa.us\/schools\/p\/palumbo", "ncesId": 421899000000.0, "overviewLink": "https:\/\/www.greatschools.org\/pennsylvania\/philadelphia\/6489-Academy-At-Palumbo\/?s_cid=gsapi", "ratingsLink": "https:\/\/www.greatschools.org\/school\/rating.page?state=PA&id=6489&s_cid=gsapi", "reviewsLink": "https:\/\/www.greatschools.org\/school\/parentReviews.page?state=PA&id=6489&s_cid=gsapi", "schoolStatsLink": "https:\/\/www.greatschools.org\/modperl\/achievement\/PA\/6489", "name_1": "academy at palumbo", "BLAS": 81.2, "pts": 2 }, "geometry": { "type": "Point", "coordinates": [ -75.161, 39.9401 ] } },
{ "type": "Feature", "id": 2, "properties": { "gsId": 14890, "name": "act academy cyber cs", "type": "charter", "gradeRange": "12-Sep", "enrollment": 110, "gsRating": 1, "parentRating": null, "city": "Philadelphia", "state": "PA", "districtId": 970, "district": "Act Academy Cyber Cs", "districtNCESId": 4200868, "address": "2111 Eastburn Ave, \rPhiladelphia, PA  19138", "phone": "(267) 297-6231", "fax": null, "website": null, "ncesId": 420087000000.0, "overviewLink": "https:\/\/www.greatschools.org\/pennsylvania\/philadelphia\/14890-ACT-Academy-Cyber-CS\/?s_cid=gsapi", "ratingsLink": "https:\/\/www.greatschools.org\/school\/rating.page?state=PA&id=14890&s_cid=gsapi", "reviewsLink": "https:\/\/www.greatschools.org\/school\/parentReviews.page?state=PA&id=14890&s_cid=gsapi", "schoolStatsLink": "https:\/\/www.greatschools.org\/modperl\/achievement\/PA\/14890", "name_1": "act academy cyber cs", "BLAS": 36.45, "pts": 0 }, "geometry": { "type": "Point", "coordinates": [ -75.1559, 40.0561 ] } },
{ "type": "Feature", "id": 3, "properties": { "gsId": 11388, "name": "arise academy charter hs", "type": "charter", "gradeRange": "12-Sep", "enrollment": 106, "gsRating": null, "parentRating": null, "city": "Philadelphia", "state": "PA", "districtId": 837, "district": "Arise Academy Charter High School", "districtNCESId": 4200823, "address": "1118 Market St, \rPhiladelphia, PA  19107", "phone": "(215) 224-9400", "fax": null, "website": null, "ncesId": 420082000000.0, "overviewLink": "https:\/\/www.greatschools.org\/pennsylvania\/philadelphia\/11388-Arise-Academy-Charter-High-School\/?s_cid=gsapi", "ratingsLink": "https:\/\/www.greatschools.org\/school\/rating.page?state=PA&id=11388&s_cid=gsapi", "reviewsLink": "https:\/\/www.greatschools.org\/school\/parentReviews.page?state=PA&id=11388&s_cid=gsapi", "schoolStatsLink": "https:\/\/www.greatschools.org\/modperl\/achievement\/PA\/11388", "name_1": null, "BLAS": null, "pts": null }, "geometry": { "type": "Point", "coordinates": [ -75.1432, 39.9498 ] } },
{ "type": "Feature", "id": 4, "properties": { "gsId": 11365, "name": "arts academy at benjamin rush", "type": "public", "gradeRange": "12-Sep", "enrollment": 601, "gsRating": 6, "parentRating": 5, "city": "Philadelphia", "state": "PA", "districtId": 397, "district": "Philadelphia City School District", "districtNCESId": 4218990, "address": "11081 Knights Rd, \rPhiladelphia, PA  19154", "phone": "(215) 281-2603", "fax": null, "website": null, "ncesId": 421899000000.0, "overviewLink": "https:\/\/www.greatschools.org\/pennsylvania\/philadelphia\/11365-Arts-Academy-At-Benjamin-Rush\/?s_cid=gsapi", "ratingsLink": "https:\/\/www.greatschools.org\/school\/rating.page?state=PA&id=11365&s_cid=gsapi", "reviewsLink": "https:\/\/www.greatschools.org\/school\/parentReviews.page?state=PA&id=11365&s_cid=gsapi", "schoolStatsLink": "https:\/\/www.greatschools.org\/modperl\/achievement\/PA\/11365", "name_1": "arts academy at benjamin rush", "BLAS": 71.51, "pts": 1 }, "geometry": { "type": "Point", "coordinates": [ -74.97637, 40.081142 ] } },
{ "type": "Feature", "id": 5, "properties": { "gsId": 11541, "name": "aspira bilingual cyber charter school", "type": "charter", "gradeRange": "K-12", "enrollment": 139, "gsRating": 2, "parentRating": null, "city": "Philadelphia", "state": "PA", "districtId": 920, "district": "Aspira Bilingual Cyber Charter School", "districtNCESId": 4200835, "address": "4322 North 5th St, \rPhiladelphia, PA  19140", "phone": "(215) 455-1300", "fax": null, "website": null, "ncesId": 420084000000.0, "overviewLink": "https:\/\/www.greatschools.org\/pennsylvania\/philadelphia\/11541-Aspira-Bilingual-Cyber-Charter-School\/?s_cid=gsapi", "ratingsLink": "https:\/\/www.greatschools.org\/school\/rating.page?state=PA&id=11541&s_cid=gsapi", "reviewsLink": "https:\/\/www.greatschools.org\/school\/parentReviews.page?state=PA&id=11541&s_cid=gsapi", "schoolStatsLink": "https:\/\/www.greatschools.org\/modperl\/achievement\/PA\/11541", "name_1": "aspira bilingual cyber charter school", "BLAS": 37.46, "pts": 0 }, "geometry": { "type": "Point", "coordinates": [ -75.1348, 40.0171 ] } },
{ "type": "Feature", "id": 6, "properties": { "gsId": 2097, "name": "bartram john - main", "type": "public", "gradeRange": "12-Sep", "enrollment": 888, "gsRating": 1, "parentRating": 3, "city": "Philadelphia", "state": "PA", "districtId": 397, "district": "Philadelphia City School District", "districtNCESId": 4218990, "address": "2401 South 67th St, \rPhiladelphia, PA  19142", "phone": "(215) 492-6450", "fax": null, "website": null, "ncesId": 421899000000.0, "overviewLink": "https:\/\/www.greatschools.org\/pennsylvania\/philadelphia\/2097-Bartram-John---Main\/?s_cid=gsapi", "ratingsLink": "https:\/\/www.greatschools.org\/school\/rating.page?state=PA&id=2097&s_cid=gsapi", "reviewsLink": "https:\/\/www.greatschools.org\/school\/parentReviews.page?state=PA&id=2097&s_cid=gsapi", "schoolStatsLink": "https:\/\/www.greatschools.org\/modperl\/achievement\/PA\/2097", "name_1": "bartram john - main", "BLAS": 33.68, "pts": 0 }, "geometry": { "type": "Point", "coordinates": [ -75.2341, 39.9215 ] } },
{ "type": "Feature", "id": 7, "properties": { "gsId": 2174, "name": "bodine william w hs", "type": "public", "gradeRange": "12-Sep", "enrollment": 494, "gsRating": 7, "parentRating": 4, "city": "Philadelphia", "state": "PA", "districtId": 397, "district": "Philadelphia City School District", "districtNCESId": 4218990, "address": "1101 North 4th St, \rPhiladelphia, PA  19123", "phone": "(215) 351-7332", "fax": "(215) 351-7370", "website": "http:\/\/www.bodine.phila.k12.pa.us\/", "ncesId": 421899000000.0, "overviewLink": "https:\/\/www.greatschools.org\/pennsylvania\/philadelphia\/2174-Bodine-William-W-High-School\/?s_cid=gsapi", "ratingsLink": "https:\/\/www.greatschools.org\/school\/rating.page?state=PA&id=2174&s_cid=gsapi", "reviewsLink": "https:\/\/www.greatschools.org\/school\/parentReviews.page?state=PA&id=2174&s_cid=gsapi", "schoolStatsLink": "https:\/\/www.greatschools.org\/modperl\/achievement\/PA\/2174", "name_1": "bodine william w hs", "BLAS": 72.38, "pts": 1 }, "geometry": { "type": "Point", "coordinates": [ -75.1432, 39.9681 ] } },
{ "type": "Feature", "id": 8, "properties": { "gsId": 11410, "name": "boys latin of philadelphia cs", "type": "charter", "gradeRange": "12-Jun", "enrollment": 747, "gsRating": 3, "parentRating": 3, "city": "Philadelphia", "state": "PA", "districtId": 832, "district": "Boys Latin Of Philadelphia Cs", "districtNCESId": 4200760, "address": "5501 Cedar Ave, \rPhiladelphia, PA  19143", "phone": "(215) 387-5149", "fax": null, "website": null, "ncesId": 420076000000.0, "overviewLink": "https:\/\/www.greatschools.org\/pennsylvania\/philadelphia\/11410-Boys-Latin-Of-Philadelphia-Cs\/?s_cid=gsapi", "ratingsLink": "https:\/\/www.greatschools.org\/school\/rating.page?state=PA&id=11410&s_cid=gsapi", "reviewsLink": "https:\/\/www.greatschools.org\/school\/parentReviews.page?state=PA&id=11410&s_cid=gsapi", "schoolStatsLink": "https:\/\/www.greatschools.org\/modperl\/achievement\/PA\/11410", "name_1": "boys latin of philadelphia cs", "BLAS": 55.43, "pts": 0 }, "geometry": { "type": "Point", "coordinates": [ -75.2334, 39.9518 ] } },
{ "type": "Feature", "id": 9, "properties": { "gsId": 2171, "name": "carver hs", "type": "public", "gradeRange": "12-Sep", "enrollment": 738, "gsRating": 7, "parentRating": 5, "city": "Philadelphia", "state": "PA", "districtId": 397, "district": "Philadelphia City School District", "districtNCESId": 4218990, "address": "1600 West Norris St, \rPhiladelphia, PA  19121", "phone": "(215) 684-5079", "fax": null, "website": null, "ncesId": 421899000000.0, "overviewLink": "https:\/\/www.greatschools.org\/pennsylvania\/philadelphia\/2171-Carver-High-School\/?s_cid=gsapi", "ratingsLink": "https:\/\/www.greatschools.org\/school\/rating.page?state=PA&id=2171&s_cid=gsapi", "reviewsLink": "https:\/\/www.greatschools.org\/school\/parentReviews.page?state=PA&id=2171&s_cid=gsapi", "schoolStatsLink": "https:\/\/www.greatschools.org\/modperl\/achievement\/PA\/2171", "name_1": null, "BLAS": null, "pts": null }, "geometry": { "type": "Point", "coordinates": [ -75.1615, 39.9835 ] } },
{ "type": "Feature", "id": 10, "properties": { "gsId": 2098, "name": "central hs", "type": "public", "gradeRange": "12-Sep", "enrollment": 2227, "gsRating": 9, "parentRating": 5, "city": "Philadelphia", "state": "PA", "districtId": 397, "district": "Philadelphia City School District", "districtNCESId": 4218990, "address": "1700 West Olney Ave, \rPhiladelphia, PA  19141", "phone": "(215) 276-5262", "fax": null, "website": "http:\/\/www.centralhigh.net\/", "ncesId": 421899000000.0, "overviewLink": "https:\/\/www.greatschools.org\/pennsylvania\/philadelphia\/2098-Central-High-School\/?s_cid=gsapi", "ratingsLink": "https:\/\/www.greatschools.org\/school\/rating.page?state=PA&id=2098&s_cid=gsapi", "reviewsLink": "https:\/\/www.greatschools.org\/school\/parentReviews.page?state=PA&id=2098&s_cid=gsapi", "schoolStatsLink": "https:\/\/www.greatschools.org\/modperl\/achievement\/PA\/2098", "name_1": "central hs", "BLAS": 95.18, "pts": 2 }, "geometry": { "type": "Point", "coordinates": [ -75.1501, 40.0375 ] } },
{ "type": "Feature", "id": 11, "properties": { "gsId": 5134, "name": "charter hs for architecture and design", "type": "charter", "gradeRange": "12-Sep", "enrollment": 601, "gsRating": 2, "parentRating": 4, "city": "Philadelphia", "state": "PA", "districtId": 657, "district": "Charter High School For Architecture And Design", "districtNCESId": 4200053, "address": "105 South 7th St, \rPhiladelphia, PA  19106", "phone": "(215) 351-2900", "fax": null, "website": "http:\/\/www.chadphila.org", "ncesId": 420005000000.0, "overviewLink": "https:\/\/www.greatschools.org\/pennsylvania\/philadelphia\/5134-Charter-High-School-For-Architecture-And-Design\/?s_cid=gsapi", "ratingsLink": "https:\/\/www.greatschools.org\/school\/rating.page?state=PA&id=5134&s_cid=gsapi", "reviewsLink": "https:\/\/www.greatschools.org\/school\/parentReviews.page?state=PA&id=5134&s_cid=gsapi", "schoolStatsLink": "https:\/\/www.greatschools.org\/modperl\/achievement\/PA\/5134", "name_1": "charter hs for architecture and design", "BLAS": 36.69, "pts": 0 }, "geometry": { "type": "Point", "coordinates": [ -75.152, 39.9489 ] } },
{ "type": "Feature", "id": 12, "properties": { "gsId": 13, "name": "community academy of philadelphia cs", "type": "charter", "gradeRange": "K-12", "enrollment": 1209, "gsRating": 3, "parentRating": 3, "city": "Philadelphia", "state": "PA", "districtId": 12, "district": "Community Academy Of Philadelphia Cs", "districtNCESId": 4200013, "address": "1100 East Erie Ave, \rPhiladelphia, PA  19124", "phone": "(215) 533-6700", "fax": null, "website": "http:\/\/www.communityacademy.org", "ncesId": 420001000000.0, "overviewLink": "https:\/\/www.greatschools.org\/pennsylvania\/philadelphia\/13-Community-Academy-Of-Philadelphia-CS\/?s_cid=gsapi", "ratingsLink": "https:\/\/www.greatschools.org\/school\/rating.page?state=PA&id=13&s_cid=gsapi", "reviewsLink": "https:\/\/www.greatschools.org\/school\/parentReviews.page?state=PA&id=13&s_cid=gsapi", "schoolStatsLink": "https:\/\/www.greatschools.org\/modperl\/achievement\/PA\/13", "name_1": "community academy of philadelphia cs", "BLAS": 61.8, "pts": 0 }, "geometry": { "type": "Point", "coordinates": [ -75.1067, 40.0045 ] } },
{ "type": "Feature", "id": 13, "properties": { "gsId": 6492, "name": "constitution hs", "type": "public", "gradeRange": "12-Sep", "enrollment": 350, "gsRating": 4, "parentRating": 4, "city": "Philadelphia", "state": "PA", "districtId": 397, "district": "Philadelphia City School District", "districtNCESId": 4218990, "address": "18 South 7th St, \rPhiladelphia, PA  19106", "phone": "(215) 351-7310", "fax": null, "website": "http:\/\/webgui.phila.k12.pa.us\/schools\/c\/constitution", "ncesId": 421899000000.0, "overviewLink": "https:\/\/www.greatschools.org\/pennsylvania\/philadelphia\/6492-Constitution-High-School\/?s_cid=gsapi", "ratingsLink": "https:\/\/www.greatschools.org\/school\/rating.page?state=PA&id=6492&s_cid=gsapi", "reviewsLink": "https:\/\/www.greatschools.org\/school\/parentReviews.page?state=PA&id=6492&s_cid=gsapi", "schoolStatsLink": "https:\/\/www.greatschools.org\/modperl\/achievement\/PA\/6492", "name_1": "national constitution center hs", "BLAS": 61.67, "pts": 0 }, "geometry": { "type": "Point", "coordinates": [ -75.1524, 39.9503 ] } },
{ "type": "Feature", "id": 14, "properties": { "gsId": 2170, "name": "creative and performing arts", "type": "public", "gradeRange": "12-Sep", "enrollment": 699, "gsRating": 5, "parentRating": 4, "city": "Philadelphia", "state": "PA", "districtId": 397, "district": "Philadelphia City School District", "districtNCESId": 4218990, "address": "901 South Broad St, \rPhiladelphia, PA  19147", "phone": "(215) 952-2462", "fax": null, "website": null, "ncesId": 421899000000.0, "overviewLink": "https:\/\/www.greatschools.org\/pennsylvania\/philadelphia\/2170-Creative-And-Performing-Arts\/?s_cid=gsapi", "ratingsLink": "https:\/\/www.greatschools.org\/school\/rating.page?state=PA&id=2170&s_cid=gsapi", "reviewsLink": "https:\/\/www.greatschools.org\/school\/parentReviews.page?state=PA&id=2170&s_cid=gsapi", "schoolStatsLink": "https:\/\/www.greatschools.org\/modperl\/achievement\/PA\/2170", "name_1": "creative and performing arts", "BLAS": 67.18, "pts": 0 }, "geometry": { "type": "Point", "coordinates": [ -75.1655, 39.9394 ] } },
{ "type": "Feature", "id": 15, "properties": { "gsId": 5204, "name": "delaware valley charter hs", "type": "charter", "gradeRange": "12-Sep", "enrollment": 677, "gsRating": 2, "parentRating": 4, "city": "Philadelphia", "state": "PA", "districtId": 682, "district": "Delaware Valley Chs", "districtNCESId": 4200078, "address": "Logan Place, \rPhiladelphia, PA  19141", "phone": "(215) 455-2550", "fax": null, "website": null, "ncesId": 420008000000.0, "overviewLink": "https:\/\/www.greatschools.org\/pennsylvania\/philadelphia\/5204-Delaware-Valley-Charter-High-School\/?s_cid=gsapi", "ratingsLink": "https:\/\/www.greatschools.org\/school\/rating.page?state=PA&id=5204&s_cid=gsapi", "reviewsLink": "https:\/\/www.greatschools.org\/school\/parentReviews.page?state=PA&id=5204&s_cid=gsapi", "schoolStatsLink": "https:\/\/www.greatschools.org\/modperl\/achievement\/PA\/5204", "name_1": "delaware valley chs", "BLAS": 34.49, "pts": 0 }, "geometry": { "type": "Point", "coordinates": [ -75.1446, 40.0331 ] } },
{ "type": "Feature", "id": 16, "properties": { "gsId": 2092, "name": "dobbins avt hs", "type": "public", "gradeRange": "12-Sep", "enrollment": 492, "gsRating": 1, "parentRating": 4, "city": "Philadelphia", "state": "PA", "districtId": 397, "district": "Philadelphia City School District", "districtNCESId": 4218990, "address": "2150 West Lehigh Ave, \rPhiladelphia, PA  19132", "phone": "(215) 227-4421", "fax": null, "website": null, "ncesId": 421899000000.0, "overviewLink": "https:\/\/www.greatschools.org\/pennsylvania\/philadelphia\/2092-Dobbins-Avt-High-School\/?s_cid=gsapi", "ratingsLink": "https:\/\/www.greatschools.org\/school\/rating.page?state=PA&id=2092&s_cid=gsapi", "reviewsLink": "https:\/\/www.greatschools.org\/school\/parentReviews.page?state=PA&id=2092&s_cid=gsapi", "schoolStatsLink": "https:\/\/www.greatschools.org\/modperl\/achievement\/PA\/2092", "name_1": "dobbins area vocational-technical hs", "BLAS": 48.31, "pts": 0 }, "geometry": { "type": "Point", "coordinates": [ -75.1669, 39.995 ] } },
{ "type": "Feature", "id": 17, "properties": { "gsId": 11398, "name": "eastern university academy charter school", "type": "charter", "gradeRange": "12-Jul", "enrollment": 330, "gsRating": 2, "parentRating": 3, "city": "Philadelphia", "state": "PA", "districtId": 834, "district": "Eastern University Academy Charter School", "districtNCESId": 4200822, "address": "3300 Henry Ave, \rPhiladelphia, PA  19129", "phone": "(215) 769-3131", "fax": null, "website": "http:\/\/www.euacademycs.org\/", "ncesId": 420082000000.0, "overviewLink": "https:\/\/www.greatschools.org\/pennsylvania\/philadelphia\/11398-Eastern-University-Academy-Charter-School\/?s_cid=gsapi", "ratingsLink": "https:\/\/www.greatschools.org\/school\/rating.page?state=PA&id=11398&s_cid=gsapi", "reviewsLink": "https:\/\/www.greatschools.org\/school\/parentReviews.page?state=PA&id=11398&s_cid=gsapi", "schoolStatsLink": "https:\/\/www.greatschools.org\/modperl\/achievement\/PA\/11398", "name_1": "eastern university academy charter school", "BLAS": 47.45, "pts": 0 }, "geometry": { "type": "Point", "coordinates": [ -75.1839, 40.0131 ] } },
{ "type": "Feature", "id": 18, "properties": { "gsId": 2099, "name": "edison hs\/fareira skills", "type": "public", "gradeRange": "12-Sep", "enrollment": 1345, "gsRating": 1, "parentRating": 3, "city": "Philadelphia", "state": "PA", "districtId": 397, "district": "Philadelphia City School District", "districtNCESId": 4218990, "address": "151 West Luzerne St, \rPhiladelphia, PA  19140", "phone": "(215) 324-9440", "fax": null, "website": null, "ncesId": 421899000000.0, "overviewLink": "https:\/\/www.greatschools.org\/pennsylvania\/philadelphia\/2099-Edison-Hs-Fareira-Skills\/?s_cid=gsapi", "ratingsLink": "https:\/\/www.greatschools.org\/school\/rating.page?state=PA&id=2099&s_cid=gsapi", "reviewsLink": "https:\/\/www.greatschools.org\/school\/parentReviews.page?state=PA&id=2099&s_cid=gsapi", "schoolStatsLink": "https:\/\/www.greatschools.org\/modperl\/achievement\/PA\/2099", "name_1": "edison hs\/fareira skills", "BLAS": 51.57, "pts": 0 }, "geometry": { "type": "Point", "coordinates": [ -75.1293, 40.0122 ] } },
{ "type": "Feature", "id": 19, "properties": { "gsId": 5202, "name": "esperanza academy charter hs", "type": "charter", "gradeRange": "12-Jun", "enrollment": 1383, "gsRating": 3, "parentRating": 3, "city": "Philadelphia", "state": "PA", "districtId": 680, "district": "Esperanza Academy Charter High School", "districtNCESId": 4200076, "address": "301 West Hunting Park Ave, \rPhiladelphia, PA  19140", "phone": "(215) 457-3667", "fax": null, "website": null, "ncesId": 420008000000.0, "overviewLink": "https:\/\/www.greatschools.org\/pennsylvania\/philadelphia\/5202-Esperanza-Academy-Charter-High-School\/?s_cid=gsapi", "ratingsLink": "https:\/\/www.greatschools.org\/school\/rating.page?state=PA&id=5202&s_cid=gsapi", "reviewsLink": "https:\/\/www.greatschools.org\/school\/parentReviews.page?state=PA&id=5202&s_cid=gsapi", "schoolStatsLink": "https:\/\/www.greatschools.org\/modperl\/achievement\/PA\/5202", "name_1": "esperanza academy charter school", "BLAS": 62.49, "pts": 0 }, "geometry": { "type": "Point", "coordinates": [ -75.1332, 40.0151 ] } },
{ "type": "Feature", "id": 20, "properties": { "gsId": 14893, "name": "esperanza cyber cs", "type": "charter", "gradeRange": "12-Jun", "enrollment": 110, "gsRating": 3, "parentRating": null, "city": "Philadelphia", "state": "PA", "districtId": 969, "district": "Esperanza Cyber Cs", "districtNCESId": 4200858, "address": "4261 North 5th St, \rPhiladelphia, PA  19140", "phone": "(215) 457-3667", "fax": null, "website": null, "ncesId": 420086000000.0, "overviewLink": "https:\/\/www.greatschools.org\/pennsylvania\/philadelphia\/14893-Esperanza-Cyber-CS\/?s_cid=gsapi", "ratingsLink": "https:\/\/www.greatschools.org\/school\/rating.page?state=PA&id=14893&s_cid=gsapi", "reviewsLink": "https:\/\/www.greatschools.org\/school\/parentReviews.page?state=PA&id=14893&s_cid=gsapi", "schoolStatsLink": "https:\/\/www.greatschools.org\/modperl\/achievement\/PA\/14893", "name_1": "esperanza cyber cs", "BLAS": 35.51, "pts": 0 }, "geometry": { "type": "Point", "coordinates": [ -75.135, 40.0159 ] } },
{ "type": "Feature", "id": 21, "properties": { "gsId": 2070, "name": "fels samuel hs", "type": "public", "gradeRange": "12-Sep", "enrollment": 1095, "gsRating": 1, "parentRating": 2, "city": "Philadelphia", "state": "PA", "districtId": 397, "district": "Philadelphia City School District", "districtNCESId": 4218990, "address": "5500 Langdon St, \rPhiladelphia, PA  19111", "phone": "(215) 537-2516", "fax": null, "website": null, "ncesId": 421899000000.0, "overviewLink": "https:\/\/www.greatschools.org\/pennsylvania\/philadelphia\/2070-Fels-Samuel-High-School\/?s_cid=gsapi", "ratingsLink": "https:\/\/www.greatschools.org\/school\/rating.page?state=PA&id=2070&s_cid=gsapi", "reviewsLink": "https:\/\/www.greatschools.org\/school\/parentReviews.page?state=PA&id=2070&s_cid=gsapi", "schoolStatsLink": "https:\/\/www.greatschools.org\/modperl\/achievement\/PA\/2070", "name_1": "fels samuel hs", "BLAS": 39.98, "pts": 0 }, "geometry": { "type": "Point", "coordinates": [ -75.0943, 40.0322 ] } },
{ "type": "Feature", "id": 22, "properties": { "gsId": 5270, "name": "first philadelphia preparatory charter school", "type": "charter", "gradeRange": "K-12", "enrollment": 1497, "gsRating": 2, "parentRating": 4, "city": "Philadelphia", "state": "PA", "districtId": 698, "district": "First Philadelphia Preparatory Charter School", "districtNCESId": 4200093, "address": "4300 Tacony St, \rPhiladelphia, PA  19124", "phone": "(215) 743-3100", "fax": null, "website": null, "ncesId": 420009000000.0, "overviewLink": "https:\/\/www.greatschools.org\/pennsylvania\/philadelphia\/5270-First-Philadelphia-Preparatory-Charter-School\/?s_cid=gsapi", "ratingsLink": "https:\/\/www.greatschools.org\/school\/rating.page?state=PA&id=5270&s_cid=gsapi", "reviewsLink": "https:\/\/www.greatschools.org\/school\/parentReviews.page?state=PA&id=5270&s_cid=gsapi", "schoolStatsLink": "https:\/\/www.greatschools.org\/modperl\/achievement\/PA\/5270", "name_1": "first philadelphia preparatory charter school", "BLAS": 52.56, "pts": 0 }, "geometry": { "type": "Point", "coordinates": [ -75.0822, 40.0073 ] } },
{ "type": "Feature", "id": 23, "properties": { "gsId": 2100, "name": "frankford hs", "type": "public", "gradeRange": "12-Sep", "enrollment": 1210, "gsRating": 1, "parentRating": 3, "city": "Philadelphia", "state": "PA", "districtId": 397, "district": "Philadelphia City School District", "districtNCESId": 4218990, "address": "5000 Oxford Ave, \rPhiladelphia, PA  19124", "phone": "(215) 537-2519", "fax": null, "website": "http:\/\/webgui.phila.k12.pa.us\/schools\/f\/frankford", "ncesId": 421899000000.0, "overviewLink": "https:\/\/www.greatschools.org\/pennsylvania\/philadelphia\/2100-Frankford-High-School\/?s_cid=gsapi", "ratingsLink": "https:\/\/www.greatschools.org\/school\/rating.page?state=PA&id=2100&s_cid=gsapi", "reviewsLink": "https:\/\/www.greatschools.org\/school\/parentReviews.page?state=PA&id=2100&s_cid=gsapi", "schoolStatsLink": "https:\/\/www.greatschools.org\/modperl\/achievement\/PA\/2100", "name_1": "frankford hs", "BLAS": 33.3, "pts": 0 }, "geometry": { "type": "Point", "coordinates": [ -75.0854, 40.0216 ] } },
{ "type": "Feature", "id": 24, "properties": { "gsId": 2101, "name": "franklin benjamin hs", "type": "public", "gradeRange": "12-Sep", "enrollment": 703, "gsRating": 1, "parentRating": 3, "city": "Philadelphia", "state": "PA", "districtId": 397, "district": "Philadelphia City School District", "districtNCESId": 4218990, "address": "550 North Broad St, \rPhiladelphia, PA  19130", "phone": "(215) 299-4662", "fax": null, "website": null, "ncesId": 421899000000.0, "overviewLink": "https:\/\/www.greatschools.org\/pennsylvania\/philadelphia\/2101-Franklin-Benjamin-High-School\/?s_cid=gsapi", "ratingsLink": "https:\/\/www.greatschools.org\/school\/rating.page?state=PA&id=2101&s_cid=gsapi", "reviewsLink": "https:\/\/www.greatschools.org\/school\/parentReviews.page?state=PA&id=2101&s_cid=gsapi", "schoolStatsLink": "https:\/\/www.greatschools.org\/modperl\/achievement\/PA\/2101", "name_1": "franklin benjamin hs", "BLAS": 32.71, "pts": 0 }, "geometry": { "type": "Point", "coordinates": [ -75.162, 39.9637 ] } },
{ "type": "Feature", "id": 25, "properties": { "gsId": 6042, "name": "franklin lc", "type": "public", "gradeRange": "11 & ungraded", "enrollment": 785, "gsRating": 4, "parentRating": 4, "city": "Philadelphia", "state": "PA", "districtId": 397, "district": "Philadelphia City School District", "districtNCESId": 4218990, "address": "616 North 15th St, \rPhiladelphia, PA  19130", "phone": "(215) 684-5916", "fax": null, "website": null, "ncesId": 421899000000.0, "overviewLink": "https:\/\/www.greatschools.org\/pennsylvania\/philadelphia\/6042-Franklin-LC\/?s_cid=gsapi", "ratingsLink": "https:\/\/www.greatschools.org\/school\/rating.page?state=PA&id=6042&s_cid=gsapi", "reviewsLink": "https:\/\/www.greatschools.org\/school\/parentReviews.page?state=PA&id=6042&s_cid=gsapi", "schoolStatsLink": "https:\/\/www.greatschools.org\/modperl\/achievement\/PA\/6042", "name_1": "franklin lc", "BLAS": 58.65, "pts": 0 }, "geometry": { "type": "Point", "coordinates": [ -75.16264, 39.9648 ] } },
{ "type": "Feature", "id": 26, "properties": { "gsId": 5203, "name": "franklin towne charter hs", "type": "charter", "gradeRange": "12-Sep", "enrollment": 1209, "gsRating": 9, "parentRating": 4, "city": "Philadelphia", "state": "PA", "districtId": 681, "district": "Franklin Towne Chs", "districtNCESId": 4200077, "address": "5301 Tacony St Building 108, \rPhiladelphia, PA  19137", "phone": "(215) 289-5000", "fax": null, "website": "http:\/\/www.franklintowne.org", "ncesId": 420008000000.0, "overviewLink": "https:\/\/www.greatschools.org\/pennsylvania\/philadelphia\/5203-Franklin-Towne-Charter-High-School\/?s_cid=gsapi", "ratingsLink": "https:\/\/www.greatschools.org\/school\/rating.page?state=PA&id=5203&s_cid=gsapi", "reviewsLink": "https:\/\/www.greatschools.org\/school\/parentReviews.page?state=PA&id=5203&s_cid=gsapi", "schoolStatsLink": "https:\/\/www.greatschools.org\/modperl\/achievement\/PA\/5203", "name_1": "franklin towne chs", "BLAS": 95.42, "pts": 2 }, "geometry": { "type": "Point", "coordinates": [ -75.0648, 40.0077 ] } },
{ "type": "Feature", "id": 27, "properties": { "gsId": 5141, "name": "freire cs", "type": "charter", "gradeRange": "12-May", "enrollment": 983, "gsRating": 3, "parentRating": 4, "city": "Philadelphia", "state": "PA", "districtId": 664, "district": "Freire Cs", "districtNCESId": 4200060, "address": "2027 Chestnut St, \rPhiladelphia, PA  19103", "phone": "(215) 557-8555", "fax": null, "website": null, "ncesId": 420006000000.0, "overviewLink": "https:\/\/www.greatschools.org\/pennsylvania\/philadelphia\/5141-Freire-Cs\/?s_cid=gsapi", "ratingsLink": "https:\/\/www.greatschools.org\/school\/rating.page?state=PA&id=5141&s_cid=gsapi", "reviewsLink": "https:\/\/www.greatschools.org\/school\/parentReviews.page?state=PA&id=5141&s_cid=gsapi", "schoolStatsLink": "https:\/\/www.greatschools.org\/modperl\/achievement\/PA\/5141", "name_1": "freire cs", "BLAS": 68.59, "pts": 0 }, "geometry": { "type": "Point", "coordinates": [ -75.1745, 39.9524 ] } },
{ "type": "Feature", "id": 28, "properties": { "gsId": 2072, "name": "furness horace hs", "type": "public", "gradeRange": "12-Sep", "enrollment": 689, "gsRating": 2, "parentRating": 4, "city": "Philadelphia", "state": "PA", "districtId": 397, "district": "Philadelphia City School District", "districtNCESId": 4218990, "address": "1900 South 3rd St, \rPhiladelphia, PA  19148", "phone": "(215) 952-6226", "fax": null, "website": null, "ncesId": 421899000000.0, "overviewLink": "https:\/\/www.greatschools.org\/pennsylvania\/philadelphia\/2072-Furness-Horace-High-School\/?s_cid=gsapi", "ratingsLink": "https:\/\/www.greatschools.org\/school\/rating.page?state=PA&id=2072&s_cid=gsapi", "reviewsLink": "https:\/\/www.greatschools.org\/school\/parentReviews.page?state=PA&id=2072&s_cid=gsapi", "schoolStatsLink": "https:\/\/www.greatschools.org\/modperl\/achievement\/PA\/2072", "name_1": "furness horace hs", "BLAS": 42.05, "pts": 0 }, "geometry": { "type": "Point", "coordinates": [ -75.151, 39.9237 ] } },
{ "type": "Feature", "id": 29, "properties": { "gsId": 5225, "name": "gamp", "type": "public", "gradeRange": "12-May", "enrollment": 504, "gsRating": 9, "parentRating": 4, "city": "Philadelphia", "state": "PA", "districtId": 397, "district": "Philadelphia City School District", "districtNCESId": 4218990, "address": "23rd And Ritner Sts, \rPhiladelphia, PA  19145", "phone": "(215) 952-8590", "fax": null, "website": null, "ncesId": 421899000000.0, "overviewLink": "https:\/\/www.greatschools.org\/pennsylvania\/philadelphia\/5225-Gamp\/?s_cid=gsapi", "ratingsLink": "https:\/\/www.greatschools.org\/school\/rating.page?state=PA&id=5225&s_cid=gsapi", "reviewsLink": "https:\/\/www.greatschools.org\/school\/parentReviews.page?state=PA&id=5225&s_cid=gsapi", "schoolStatsLink": "https:\/\/www.greatschools.org\/modperl\/achievement\/PA\/5225", "name_1": "gamp", "BLAS": 80.39, "pts": 2 }, "geometry": { "type": "Point", "coordinates": [ -75.1831, 39.9221 ] } },
{ "type": "Feature", "id": 30, "properties": { "gsId": 2094, "name": "girls hs", "type": "public", "gradeRange": "12-Sep", "enrollment": 1043, "gsRating": 6, "parentRating": 5, "city": "Philadelphia", "state": "PA", "districtId": 397, "district": "Philadelphia City School District", "districtNCESId": 4218990, "address": "1400 West Olney Ave, \rPhiladelphia, PA  19141", "phone": "(215) 276-5258", "fax": null, "website": null, "ncesId": 421899000000.0, "overviewLink": "https:\/\/www.greatschools.org\/pennsylvania\/philadelphia\/2094-Girls-High-School\/?s_cid=gsapi", "ratingsLink": "https:\/\/www.greatschools.org\/school\/rating.page?state=PA&id=2094&s_cid=gsapi", "reviewsLink": "https:\/\/www.greatschools.org\/school\/parentReviews.page?state=PA&id=2094&s_cid=gsapi", "schoolStatsLink": "https:\/\/www.greatschools.org\/modperl\/achievement\/PA\/2094", "name_1": "girls hs", "BLAS": 78.09, "pts": 1 }, "geometry": { "type": "Point", "coordinates": [ -75.1462, 40.0384 ] } },
{ "type": "Feature", "id": 31, "properties": { "gsId": 5143, "name": "hardy williams academy cs", "type": "charter", "gradeRange": "K-12", "enrollment": 1110, "gsRating": 3, "parentRating": 3, "city": "Philadelphia", "state": "PA", "districtId": 666, "district": "Hardy Williams Academy Cs", "districtNCESId": 4200062, "address": "1712 South 56th St, \rPhiladelphia, PA  19143", "phone": "(215) 724-2343", "fax": null, "website": "http:\/\/www.���_hwacs.���_org", "ncesId": 420006000000.0, "overviewLink": "https:\/\/www.greatschools.org\/pennsylvania\/philadelphia\/5143-Hardy-Williams-Academy-Cs\/?s_cid=gsapi", "ratingsLink": "https:\/\/www.greatschools.org\/school\/rating.page?state=PA&id=5143&s_cid=gsapi", "reviewsLink": "https:\/\/www.greatschools.org\/school\/parentReviews.page?state=PA&id=5143&s_cid=gsapi", "schoolStatsLink": "https:\/\/www.greatschools.org\/modperl\/achievement\/PA\/5143", "name_1": "mastery cs - hardy williams", "BLAS": 49.49, "pts": 0 }, "geometry": { "type": "Point", "coordinates": [ -75.2253, 39.9372 ] } },
{ "type": "Feature", "id": 32, "properties": { "gsId": 38, "name": "imhotep institute charter hs", "type": "charter", "gradeRange": "12-Sep", "enrollment": 562, "gsRating": 2, "parentRating": 4, "city": "Philadelphia", "state": "PA", "districtId": 37, "district": "Imhotep Institute Chs", "districtNCESId": 4200038, "address": "6201 North 21st St, \rPhiladelphia, PA  19138", "phone": "(215) 438-4140", "fax": null, "website": "http:\/\/www.imhotephighschool.com\/", "ncesId": 420004000000.0, "overviewLink": "https:\/\/www.greatschools.org\/pennsylvania\/philadelphia\/38-Imhotep-Institute-Charter-High-School\/?s_cid=gsapi", "ratingsLink": "https:\/\/www.greatschools.org\/school\/rating.page?state=PA&id=38&s_cid=gsapi", "reviewsLink": "https:\/\/www.greatschools.org\/school\/parentReviews.page?state=PA&id=38&s_cid=gsapi", "schoolStatsLink": "https:\/\/www.greatschools.org\/modperl\/achievement\/PA\/38", "name_1": "imhotep institute chs", "BLAS": 40.05, "pts": 0 }, "geometry": { "type": "Point", "coordinates": [ -75.1546, 40.0492 ] } },
{ "type": "Feature", "id": 33, "properties": { "gsId": 6404, "name": "kensington creative & performing arts hs", "type": "public", "gradeRange": "12-Sep", "enrollment": 497, "gsRating": 1, "parentRating": 2, "city": "Philadelphia", "state": "PA", "districtId": 397, "district": "Philadelphia City School District", "districtNCESId": 4218990, "address": "1901 North Front St, \rPhiladelphia, PA  19122", "phone": "(215) 291-4700", "fax": null, "website": null, "ncesId": 421899000000.0, "overviewLink": "https:\/\/www.greatschools.org\/pennsylvania\/philadelphia\/6404-Kensington-Creative-&-Performing-Arts-High-School\/?s_cid=gsapi", "ratingsLink": "https:\/\/www.greatschools.org\/school\/rating.page?state=PA&id=6404&s_cid=gsapi", "reviewsLink": "https:\/\/www.greatschools.org\/school\/parentReviews.page?state=PA&id=6404&s_cid=gsapi", "schoolStatsLink": "https:\/\/www.greatschools.org\/modperl\/achievement\/PA\/6404", "name_1": "kensington creative & performing arts hs", "BLAS": 30.78, "pts": 0 }, "geometry": { "type": "Point", "coordinates": [ -75.1331, 39.9779 ] } },
{ "type": "Feature", "id": 34, "properties": { "gsId": 6401, "name": "kensington culinary arts", "type": "public", "gradeRange": "12-Sep", "enrollment": 424, "gsRating": 1, "parentRating": 4, "city": "Philadelphia", "state": "PA", "districtId": 397, "district": "Philadelphia City School District", "districtNCESId": 4218990, "address": "2463 Emerald St, \rPhiladelphia, PA  19125", "phone": "(215) 291-5185", "fax": null, "website": null, "ncesId": 421899000000.0, "overviewLink": "https:\/\/www.greatschools.org\/pennsylvania\/philadelphia\/6401-Kensington-Culinary-Arts\/?s_cid=gsapi", "ratingsLink": "https:\/\/www.greatschools.org\/school\/rating.page?state=PA&id=6401&s_cid=gsapi", "reviewsLink": "https:\/\/www.greatschools.org\/school\/parentReviews.page?state=PA&id=6401&s_cid=gsapi", "schoolStatsLink": "https:\/\/www.greatschools.org\/modperl\/achievement\/PA\/6401", "name_1": null, "BLAS": null, "pts": null }, "geometry": { "type": "Point", "coordinates": [ -75.1282, 39.9846 ] } },
{ "type": "Feature", "id": 35, "properties": { "gsId": 6405, "name": "kensington intern business finance & entrep", "type": "public", "gradeRange": "12-Sep", "enrollment": 358, "gsRating": 1, "parentRating": 4, "city": "Philadelphia", "state": "PA", "districtId": 397, "district": "Philadelphia City School District", "districtNCESId": 4218990, "address": "2051 East Cumbeerland St, \rPhiladelphia, PA  19125", "phone": "(215) 291-4700", "fax": null, "website": null, "ncesId": 421899000000.0, "overviewLink": "https:\/\/www.greatschools.org\/pennsylvania\/philadelphia\/6405-Kensington-Intern-Business-Finance-&-Entrep\/?s_cid=gsapi", "ratingsLink": "https:\/\/www.greatschools.org\/school\/rating.page?state=PA&id=6405&s_cid=gsapi", "reviewsLink": "https:\/\/www.greatschools.org\/school\/parentReviews.page?state=PA&id=6405&s_cid=gsapi", "schoolStatsLink": "https:\/\/www.greatschools.org\/modperl\/achievement\/PA\/6405", "name_1": null, "BLAS": null, "pts": null }, "geometry": { "type": "Point", "coordinates": [ -75.1266, 39.9845 ] } },
{ "type": "Feature", "id": 36, "properties": { "gsId": 11549, "name": "kensington urban education academy", "type": "public", "gradeRange": "12-Sep", "enrollment": 348, "gsRating": 1, "parentRating": null, "city": "Philadelphia", "state": "PA", "districtId": 397, "district": "Philadelphia City School District", "districtNCESId": 4218990, "address": "2051 East Cumberland St, \rPhiladelphia, PA  19125", "phone": "(215) 291-5173", "fax": null, "website": null, "ncesId": 421899000000.0, "overviewLink": "https:\/\/www.greatschools.org\/pennsylvania\/philadelphia\/11549-Kensington-Urban-Education-Academy\/?s_cid=gsapi", "ratingsLink": "https:\/\/www.greatschools.org\/school\/rating.page?state=PA&id=11549&s_cid=gsapi", "reviewsLink": "https:\/\/www.greatschools.org\/school\/parentReviews.page?state=PA&id=11549&s_cid=gsapi", "schoolStatsLink": "https:\/\/www.greatschools.org\/modperl\/achievement\/PA\/11549", "name_1": null, "BLAS": null, "pts": null }, "geometry": { "type": "Point", "coordinates": [ -75.1269, 39.9848 ] } },
{ "type": "Feature", "id": 37, "properties": { "gsId": 2157, "name": "king martin luther hs", "type": "public", "gradeRange": "12-Sep", "enrollment": 1042, "gsRating": 1, "parentRating": 4, "city": "Philadelphia", "state": "PA", "districtId": 397, "district": "Philadelphia City School District", "districtNCESId": 4218990, "address": "6100 Stenton Ave, \rPhiladelphia, PA  19138", "phone": "(215) 276-5253", "fax": "(215) 276-5844", "website": null, "ncesId": 421899000000.0, "overviewLink": "https:\/\/www.greatschools.org\/pennsylvania\/philadelphia\/2157-King-Martin-Luther-High-School\/?s_cid=gsapi", "ratingsLink": "https:\/\/www.greatschools.org\/school\/rating.page?state=PA&id=2157&s_cid=gsapi", "reviewsLink": "https:\/\/www.greatschools.org\/school\/parentReviews.page?state=PA&id=2157&s_cid=gsapi", "schoolStatsLink": "https:\/\/www.greatschools.org\/modperl\/achievement\/PA\/2157", "name_1": "king martin luther hs", "BLAS": 33.51, "pts": 0 }, "geometry": { "type": "Point", "coordinates": [ -75.1615, 40.0564 ] } },
{ "type": "Feature", "id": 38, "properties": { "gsId": 6021, "name": "kipp philadelphia charter school", "type": "charter", "gradeRange": "K-12", "enrollment": 1265, "gsRating": 3, "parentRating": 4, "city": "Philadelphia", "state": "PA", "districtId": 731, "district": "KIPP Philadelphia Charter School", "districtNCESId": 4200122, "address": "2709 North Broad St, \rPhiladelphia, PA  19132", "phone": "(215) 227-1728", "fax": "(215) 827-5942", "website": "http:\/\/www.kippphiladelphia.org", "ncesId": 420012000000.0, "overviewLink": "https:\/\/www.greatschools.org\/pennsylvania\/philadelphia\/6021-Kipp-Philadelphia-Charter-School\/?s_cid=gsapi", "ratingsLink": "https:\/\/www.greatschools.org\/school\/rating.page?state=PA&id=6021&s_cid=gsapi", "reviewsLink": "https:\/\/www.greatschools.org\/school\/parentReviews.page?state=PA&id=6021&s_cid=gsapi", "schoolStatsLink": "https:\/\/www.greatschools.org\/modperl\/achievement\/PA\/6021", "name_1": "kipp philadelphia charter school", "BLAS": 49.03, "pts": 0 }, "geometry": { "type": "Point", "coordinates": [ -75.1541, 39.9944 ] } },
{ "type": "Feature", "id": 39, "properties": { "gsId": 6406, "name": "lamberton robert hs", "type": "public", "gradeRange": "12-Sep", "enrollment": null, "gsRating": null, "parentRating": 2, "city": "Philadelphia", "state": "PA", "districtId": 397, "district": "Philadelphia City School District", "districtNCESId": 4218990, "address": "7501 Woodbine Ave, \rPhiladelphia, PA  19151", "phone": "(215) 581-5650", "fax": null, "website": null, "ncesId": 421899000000.0, "overviewLink": "https:\/\/www.greatschools.org\/pennsylvania\/philadelphia\/6406-Lamberton-Robert-High-School\/?s_cid=gsapi", "ratingsLink": "https:\/\/www.greatschools.org\/school\/rating.page?state=PA&id=6406&s_cid=gsapi", "reviewsLink": "https:\/\/www.greatschools.org\/school\/parentReviews.page?state=PA&id=6406&s_cid=gsapi", "schoolStatsLink": "https:\/\/www.greatschools.org\/modperl\/achievement\/PA\/6406", "name_1": "lamberton robert e school", "BLAS": 40.77, "pts": 0 }, "geometry": { "type": "Point", "coordinates": [ -75.2671, 39.9757 ] } },
{ "type": "Feature", "id": 40, "properties": { "gsId": 6407, "name": "lankenau hs", "type": "public", "gradeRange": "12-Sep", "enrollment": 313, "gsRating": 3, "parentRating": 4, "city": "Philadelphia", "state": "PA", "districtId": 397, "district": "Philadelphia City School District", "districtNCESId": 4218990, "address": "201 Spring Ln, \rPhiladelphia, PA  19128", "phone": "(215) 487-4465", "fax": null, "website": null, "ncesId": 421899000000.0, "overviewLink": "https:\/\/www.greatschools.org\/pennsylvania\/philadelphia\/6407-Lankenau-High-School\/?s_cid=gsapi", "ratingsLink": "https:\/\/www.greatschools.org\/school\/rating.page?state=PA&id=6407&s_cid=gsapi", "reviewsLink": "https:\/\/www.greatschools.org\/school\/parentReviews.page?state=PA&id=6407&s_cid=gsapi", "schoolStatsLink": "https:\/\/www.greatschools.org\/modperl\/achievement\/PA\/6407", "name_1": "lankenau hs", "BLAS": 65.22, "pts": 0 }, "geometry": { "type": "Point", "coordinates": [ -75.2526, 40.0624 ] } },
{ "type": "Feature", "id": 41, "properties": { "gsId": 2096, "name": "lincoln hs", "type": "public", "gradeRange": "12-Sep", "enrollment": 1547, "gsRating": 1, "parentRating": 3, "city": "Philadelphia", "state": "PA", "districtId": 397, "district": "Philadelphia City School District", "districtNCESId": 4218990, "address": "3201 Ryan Ave, \rPhiladelphia, PA  19136", "phone": "(215) 335-5653", "fax": null, "website": "http:\/\/webgui.phila.k12.pa.us\/schools\/l\/lincoln", "ncesId": 421899000000.0, "overviewLink": "https:\/\/www.greatschools.org\/pennsylvania\/philadelphia\/2096-Lincoln-High-School\/?s_cid=gsapi", "ratingsLink": "https:\/\/www.greatschools.org\/school\/rating.page?state=PA&id=2096&s_cid=gsapi", "reviewsLink": "https:\/\/www.greatschools.org\/school\/parentReviews.page?state=PA&id=2096&s_cid=gsapi", "schoolStatsLink": "https:\/\/www.greatschools.org\/modperl\/achievement\/PA\/2096", "name_1": "lincoln hs", "BLAS": 38.39, "pts": 0 }, "geometry": { "type": "Point", "coordinates": [ -75.0431, 40.0428 ] } },
{ "type": "Feature", "id": 42, "properties": { "gsId": 5205, "name": "mariana bracetti academy cs", "type": "charter", "gradeRange": "12-Jun", "enrollment": 1288, "gsRating": 3, "parentRating": 4, "city": "Philadelphia", "state": "PA", "districtId": 683, "district": "Mariana Bracetti Academy Cs", "districtNCESId": 4200079, "address": "1840 Torresdale Ave, \rPhiladelphia, PA  19124", "phone": "(215) 291-4436", "fax": "(215) 291-4985", "website": "http:\/\/www.mbacs.org", "ncesId": 420008000000.0, "overviewLink": "https:\/\/www.greatschools.org\/pennsylvania\/philadelphia\/5205-Mariana-Bracetti-Academy-Cs\/?s_cid=gsapi", "ratingsLink": "https:\/\/www.greatschools.org\/school\/rating.page?state=PA&id=5205&s_cid=gsapi", "reviewsLink": "https:\/\/www.greatschools.org\/school\/parentReviews.page?state=PA&id=5205&s_cid=gsapi", "schoolStatsLink": "https:\/\/www.greatschools.org\/modperl\/achievement\/PA\/5205", "name_1": "mariana bracetti academy cs", "BLAS": 62.47, "pts": 0 }, "geometry": { "type": "Point", "coordinates": [ -75.0951, 40.0059 ] } },
{ "type": "Feature", "id": 43, "properties": { "gsId": 6022, "name": "maritime academy cs", "type": "charter", "gradeRange": "12-Apr", "enrollment": 789, "gsRating": 4, "parentRating": 4, "city": "Philadelphia", "state": "PA", "districtId": 732, "district": "Maritime Academy Charter School", "districtNCESId": 4200123, "address": "2275 Bridge St, \rPhiladelphia, PA  19137", "phone": "(215) 535-4555", "fax": null, "website": null, "ncesId": 420012000000.0, "overviewLink": "https:\/\/www.greatschools.org\/pennsylvania\/philadelphia\/6022-Maritime-Academy-Cs\/?s_cid=gsapi", "ratingsLink": "https:\/\/www.greatschools.org\/school\/rating.page?state=PA&id=6022&s_cid=gsapi", "reviewsLink": "https:\/\/www.greatschools.org\/school\/parentReviews.page?state=PA&id=6022&s_cid=gsapi", "schoolStatsLink": "https:\/\/www.greatschools.org\/modperl\/achievement\/PA\/6022", "name_1": "maritime academy cs", "BLAS": 58.28, "pts": 0 }, "geometry": { "type": "Point", "coordinates": [ -75.0652, 40.0085 ] } },
{ "type": "Feature", "id": 44, "properties": { "gsId": 5132, "name": "mast community charter school", "type": "charter", "gradeRange": "K-12", "enrollment": 1322, "gsRating": 9, "parentRating": 4, "city": "Philadelphia", "state": "PA", "districtId": 655, "district": "Mast Community Charter School", "districtNCESId": 4200051, "address": "1800 East Byberry Rd, \rPhiladelphia, PA  19116", "phone": "(267) 348-1100", "fax": "(267) 348-1217", "website": null, "ncesId": 420005000000.0, "overviewLink": "https:\/\/www.greatschools.org\/pennsylvania\/philadelphia\/5132-Mast-Community-Charter-School\/?s_cid=gsapi", "ratingsLink": "https:\/\/www.greatschools.org\/school\/rating.page?state=PA&id=5132&s_cid=gsapi", "reviewsLink": "https:\/\/www.greatschools.org\/school\/parentReviews.page?state=PA&id=5132&s_cid=gsapi", "schoolStatsLink": "https:\/\/www.greatschools.org\/modperl\/achievement\/PA\/5132", "name_1": "mast community cs ii", "BLAS": 60.26, "pts": 0 }, "geometry": { "type": "Point", "coordinates": [ -75.00512, 40.114056 ] } },
{ "type": "Feature", "id": 45, "properties": { "gsId": 2093, "name": "mastbaum jules e avts", "type": "public", "gradeRange": "12-Sep", "enrollment": 592, "gsRating": 1, "parentRating": 4, "city": "Philadelphia", "state": "PA", "districtId": 397, "district": "Philadelphia City School District", "districtNCESId": 4218990, "address": "3116 Frankford Ave, \rPhiladelphia, PA  19134", "phone": "(215) 291-4703", "fax": null, "website": null, "ncesId": 421899000000.0, "overviewLink": "https:\/\/www.greatschools.org\/pennsylvania\/philadelphia\/2093-Mastbaum-Jules-E-Avts\/?s_cid=gsapi", "ratingsLink": "https:\/\/www.greatschools.org\/school\/rating.page?state=PA&id=2093&s_cid=gsapi", "reviewsLink": "https:\/\/www.greatschools.org\/school\/parentReviews.page?state=PA&id=2093&s_cid=gsapi", "schoolStatsLink": "https:\/\/www.greatschools.org\/modperl\/achievement\/PA\/2093", "name_1": "mastbaum jules e area vocational-technical school", "BLAS": 51.29, "pts": 0 }, "geometry": { "type": "Point", "coordinates": [ -75.1121, 39.9925 ] } },
{ "type": "Feature", "id": 46, "properties": { "gsId": 2063, "name": "masterman julia r sec school", "type": "public", "gradeRange": "12-May", "enrollment": 1180, "gsRating": 9, "parentRating": 4, "city": "Philadelphia", "state": "PA", "districtId": 397, "district": "Philadelphia City School District", "districtNCESId": 4218990, "address": "1699 Spring Garden St, \rPhiladelphia, PA  19130", "phone": "(215) 299-4661", "fax": "(215) 299-3425", "website": "http:\/\/www.philasd.org\/schools\/masterman", "ncesId": 421899000000.0, "overviewLink": "https:\/\/www.greatschools.org\/pennsylvania\/philadelphia\/2063-Masterman-Julia-R-Secondary-School\/?s_cid=gsapi", "ratingsLink": "https:\/\/www.greatschools.org\/school\/rating.page?state=PA&id=2063&s_cid=gsapi", "reviewsLink": "https:\/\/www.greatschools.org\/school\/parentReviews.page?state=PA&id=2063&s_cid=gsapi", "schoolStatsLink": "https:\/\/www.greatschools.org\/modperl\/achievement\/PA\/2063", "name_1": "masterman julia r sec school", "BLAS": 89.43, "pts": 2 }, "geometry": { "type": "Point", "coordinates": [ -75.1658, 39.9635 ] } },
{ "type": "Feature", "id": 47, "properties": { "gsId": 5238, "name": "mastery charter hs", "type": "charter", "gradeRange": "12-Jul", "enrollment": 563, "gsRating": 3, "parentRating": 4, "city": "Philadelphia", "state": "PA", "districtId": 688, "district": "Mastery Charter High School", "districtNCESId": 4200084, "address": "35 South 4th St, \rPhiladelphia, PA  19106", "phone": "(215) 922-1902", "fax": null, "website": null, "ncesId": 420008000000.0, "overviewLink": "https:\/\/www.greatschools.org\/pennsylvania\/philadelphia\/5238-Mastery-Charter-High-School\/?s_cid=gsapi", "ratingsLink": "https:\/\/www.greatschools.org\/school\/rating.page?state=PA&id=5238&s_cid=gsapi", "reviewsLink": "https:\/\/www.greatschools.org\/school\/parentReviews.page?state=PA&id=5238&s_cid=gsapi", "schoolStatsLink": "https:\/\/www.greatschools.org\/modperl\/achievement\/PA\/5238", "name_1": "frederick douglass mastery charter school", "BLAS": 50.38, "pts": 0 }, "geometry": { "type": "Point", "coordinates": [ -75.1472, 39.9496 ] } },
{ "type": "Feature", "id": 48, "properties": { "gsId": 6490, "name": "mastery cs - thomas campus", "type": "charter", "gradeRange": "K-12", "enrollment": 1352, "gsRating": 4, "parentRating": 4, "city": "Philadelphia", "state": "PA", "districtId": 819, "district": "Mastery Cs-Thomas Campus", "districtNCESId": 4200144, "address": "927 Johnston St, \rPhiladelphia, PA  19148", "phone": "(267) 236-0036", "fax": null, "website": null, "ncesId": 420014000000.0, "overviewLink": "https:\/\/www.greatschools.org\/pennsylvania\/philadelphia\/6490-Mastery-Cs---Thomas-Campus\/?s_cid=gsapi", "ratingsLink": "https:\/\/www.greatschools.org\/school\/rating.page?state=PA&id=6490&s_cid=gsapi", "reviewsLink": "https:\/\/www.greatschools.org\/school\/parentReviews.page?state=PA&id=6490&s_cid=gsapi", "schoolStatsLink": "https:\/\/www.greatschools.org\/modperl\/achievement\/PA\/6490", "name_1": "mastery cs -thomas campus", "BLAS": 57.39, "pts": 0 }, "geometry": { "type": "Point", "coordinates": [ -75.1636, 39.9147 ] } },
{ "type": "Feature", "id": 49, "properties": { "gsId": 6491, "name": "mastery cs -shoemaker campus", "type": "charter", "gradeRange": "12-Jul", "enrollment": 735, "gsRating": 4, "parentRating": 4, "city": "Philadelphia", "state": "PA", "districtId": 820, "district": "Mastery Cs-Shoemaker Campus", "districtNCESId": 4200145, "address": "5301 Media St, \rPhiladelphia, PA  19131", "phone": "(267) 296-7111", "fax": null, "website": "http:\/\/www.masterycharter.org", "ncesId": 420015000000.0, "overviewLink": "https:\/\/www.greatschools.org\/pennsylvania\/philadelphia\/6491-Mastery-Cs--Shoemaker-Campus\/?s_cid=gsapi", "ratingsLink": "https:\/\/www.greatschools.org\/school\/rating.page?state=PA&id=6491&s_cid=gsapi", "reviewsLink": "https:\/\/www.greatschools.org\/school\/parentReviews.page?state=PA&id=6491&s_cid=gsapi", "schoolStatsLink": "https:\/\/www.greatschools.org\/modperl\/achievement\/PA\/6491", "name_1": "mastery cs - shoemaker campus", "BLAS": 60.43, "pts": 0 }, "geometry": { "type": "Point", "coordinates": [ -75.2286, 39.9761 ] } },
{ "type": "Feature", "id": 50, "properties": { "gsId": 11413, "name": "mastery cs-gratz campus", "type": "charter", "gradeRange": "12-Jul", "enrollment": 1432, "gsRating": 1, "parentRating": null, "city": "Philadelphia", "state": "PA", "districtId": 959, "district": "Mastery Cs-Gratz Campus", "districtNCESId": 4200851, "address": "1798 West Hunting Park Ave, \rPhiladelphia, PA  19140", "phone": "(215) 227-4408", "fax": null, "website": null, "ncesId": 420085000000.0, "overviewLink": "https:\/\/www.greatschools.org\/pennsylvania\/philadelphia\/11413-Mastery-Cs-Gratz-Campus\/?s_cid=gsapi", "ratingsLink": "https:\/\/www.greatschools.org\/school\/rating.page?state=PA&id=11413&s_cid=gsapi", "reviewsLink": "https:\/\/www.greatschools.org\/school\/parentReviews.page?state=PA&id=11413&s_cid=gsapi", "schoolStatsLink": "https:\/\/www.greatschools.org\/modperl\/achievement\/PA\/11413", "name_1": "mastery cs-gratz campus", "BLAS": 53.76, "pts": 0 }, "geometry": { "type": "Point", "coordinates": [ -75.1555, 40.01476 ] } },
{ "type": "Feature", "id": 51, "properties": { "gsId": 7144, "name": "mastery cs-pickett campus", "type": "charter", "gradeRange": "12-Jun", "enrollment": 844, "gsRating": 3, "parentRating": 4, "city": "Philadelphia", "state": "PA", "districtId": 822, "district": "Mastery Cs-Pickett Campus", "districtNCESId": 4200761, "address": "5700 Wayne Ave, \rPhiladelphia, PA  19144", "phone": "(215) 866-9000", "fax": null, "website": null, "ncesId": 420076000000.0, "overviewLink": "https:\/\/www.greatschools.org\/pennsylvania\/philadelphia\/7144-Mastery-Cs-Pickett-Campus\/?s_cid=gsapi", "ratingsLink": "https:\/\/www.greatschools.org\/school\/rating.page?state=PA&id=7144&s_cid=gsapi", "reviewsLink": "https:\/\/www.greatschools.org\/school\/parentReviews.page?state=PA&id=7144&s_cid=gsapi", "schoolStatsLink": "https:\/\/www.greatschools.org\/modperl\/achievement\/PA\/7144", "name_1": "mastery cs-pickett campus", "BLAS": 57.0, "pts": 0 }, "geometry": { "type": "Point", "coordinates": [ -75.1809, 40.0319 ] } },
{ "type": "Feature", "id": 52, "properties": { "gsId": 5137, "name": "math civics and sciences cs", "type": "charter", "gradeRange": "12-Jan", "enrollment": 999, "gsRating": 3, "parentRating": 3, "city": "Philadelphia", "state": "PA", "districtId": 660, "district": "Math Civics And Sciences Cs", "districtNCESId": 4200056, "address": "447 North Broad St, \rPhiladelphia, PA  19123", "phone": "(215) 923-4880", "fax": null, "website": null, "ncesId": 420006000000.0, "overviewLink": "https:\/\/www.greatschools.org\/pennsylvania\/philadelphia\/5137-Math-Civics-And-Sciences-Cs\/?s_cid=gsapi", "ratingsLink": "https:\/\/www.greatschools.org\/school\/rating.page?state=PA&id=5137&s_cid=gsapi", "reviewsLink": "https:\/\/www.greatschools.org\/school\/parentReviews.page?state=PA&id=5137&s_cid=gsapi", "schoolStatsLink": "https:\/\/www.greatschools.org\/modperl\/achievement\/PA\/5137", "name_1": "math civics and sciences cs", "BLAS": 54.95, "pts": 0 }, "geometry": { "type": "Point", "coordinates": [ -75.1612, 39.9612 ] } },
{ "type": "Feature", "id": 53, "properties": { "gsId": 6408, "name": "motivation hs", "type": "public", "gradeRange": "12-Sep", "enrollment": 292, "gsRating": 4, "parentRating": 4, "city": "Philadelphia", "state": "PA", "districtId": 397, "district": "Philadelphia City School District", "districtNCESId": 4218990, "address": "5900 Baltimore Ave, \rPhiladelphia, PA  19143", "phone": "(215) 492-6451", "fax": null, "website": "http:\/\/webgui.phila.k12.pa.us\/schools\/m\/motivation", "ncesId": 421899000000.0, "overviewLink": "https:\/\/www.greatschools.org\/pennsylvania\/philadelphia\/6408-Motivation-High-School\/?s_cid=gsapi", "ratingsLink": "https:\/\/www.greatschools.org\/school\/rating.page?state=PA&id=6408&s_cid=gsapi", "reviewsLink": "https:\/\/www.greatschools.org\/school\/parentReviews.page?state=PA&id=6408&s_cid=gsapi", "schoolStatsLink": "https:\/\/www.greatschools.org\/modperl\/achievement\/PA\/6408", "name_1": "motivation hs", "BLAS": 44.94, "pts": 0 }, "geometry": { "type": "Point", "coordinates": [ -75.2418, 39.9445 ] } },
{ "type": "Feature", "id": 54, "properties": { "gsId": 40, "name": "multi-cultural academy cs", "type": "charter", "gradeRange": "12-Sep", "enrollment": 267, "gsRating": 4, "parentRating": 4, "city": "Philadelphia", "state": "PA", "districtId": 39, "district": "Multi-Cultural Academy Cs", "districtNCESId": 4200040, "address": "3821 North Broad St, \rPhiladelphia, PA  19140", "phone": "(215) 227-0513", "fax": null, "website": null, "ncesId": 420004000000.0, "overviewLink": "https:\/\/www.greatschools.org\/pennsylvania\/philadelphia\/40-Multi-Cultural-Academy-Cs\/?s_cid=gsapi", "ratingsLink": "https:\/\/www.greatschools.org\/school\/rating.page?state=PA&id=40&s_cid=gsapi", "reviewsLink": "https:\/\/www.greatschools.org\/school\/parentReviews.page?state=PA&id=40&s_cid=gsapi", "schoolStatsLink": "https:\/\/www.greatschools.org\/modperl\/achievement\/PA\/40", "name_1": "multicultural academy cs", "BLAS": 78.26, "pts": 1 }, "geometry": { "type": "Point", "coordinates": [ -75.1502, 40.0114 ] } },
{ "type": "Feature", "id": 55, "properties": { "gsId": 5201, "name": "new foundations cs", "type": "charter", "gradeRange": "K-12", "enrollment": 1363, "gsRating": 7, "parentRating": 4, "city": "Philadelphia", "state": "PA", "districtId": 679, "district": "New Foundations Cs", "districtNCESId": 4200075, "address": "8001 Torresdale Ave, \rPhiladelphia, PA  19136", "phone": "(215) 624-8100", "fax": null, "website": "http:\/\/www.nfcsonline.org", "ncesId": 420008000000.0, "overviewLink": "https:\/\/www.greatschools.org\/pennsylvania\/philadelphia\/5201-New-Foundations-Cs\/?s_cid=gsapi", "ratingsLink": "https:\/\/www.greatschools.org\/school\/rating.page?state=PA&id=5201&s_cid=gsapi", "reviewsLink": "https:\/\/www.greatschools.org\/school\/parentReviews.page?state=PA&id=5201&s_cid=gsapi", "schoolStatsLink": "https:\/\/www.greatschools.org\/modperl\/achievement\/PA\/5201", "name_1": "new foundations cs", "BLAS": 67.16, "pts": 0 }, "geometry": { "type": "Point", "coordinates": [ -75.0242, 40.0351 ] } },
{ "type": "Feature", "id": 56, "properties": { "gsId": 6397, "name": "new media technology cs", "type": "charter", "gradeRange": "12-May", "enrollment": 536, "gsRating": 1, "parentRating": 2, "city": "Philadelphia", "state": "PA", "districtId": 788, "district": "New Media Technology Cs", "districtNCESId": 4200132, "address": "8034 Thouron Ave, \rPhiladelphia, PA  19150", "phone": "(267) 286-6900", "fax": null, "website": null, "ncesId": 420013000000.0, "overviewLink": "https:\/\/www.greatschools.org\/pennsylvania\/philadelphia\/6397-New-Media-Technology-Cs\/?s_cid=gsapi", "ratingsLink": "https:\/\/www.greatschools.org\/school\/rating.page?state=PA&id=6397&s_cid=gsapi", "reviewsLink": "https:\/\/www.greatschools.org\/school\/parentReviews.page?state=PA&id=6397&s_cid=gsapi", "schoolStatsLink": "https:\/\/www.greatschools.org\/modperl\/achievement\/PA\/6397", "name_1": null, "BLAS": null, "pts": null }, "geometry": { "type": "Point", "coordinates": [ -75.1715, 40.0726 ] } },
{ "type": "Feature", "id": 57, "properties": { "gsId": 2105, "name": "northeast hs", "type": "public", "gradeRange": "12-Sep", "enrollment": 3004, "gsRating": 2, "parentRating": 4, "city": "Philadelphia", "state": "PA", "districtId": 397, "district": "Philadelphia City School District", "districtNCESId": 4218990, "address": "1601 Cottman Ave, \rPhiladelphia, PA  19111", "phone": "(215) 728-5018", "fax": null, "website": "http:\/\/www.nehs.phila.k12.pa.us\/", "ncesId": 421899000000.0, "overviewLink": "https:\/\/www.greatschools.org\/pennsylvania\/philadelphia\/2105-Northeast-High-School\/?s_cid=gsapi", "ratingsLink": "https:\/\/www.greatschools.org\/school\/rating.page?state=PA&id=2105&s_cid=gsapi", "reviewsLink": "https:\/\/www.greatschools.org\/school\/parentReviews.page?state=PA&id=2105&s_cid=gsapi", "schoolStatsLink": "https:\/\/www.greatschools.org\/modperl\/achievement\/PA\/2105", "name_1": "northeast hs", "BLAS": 57.41, "pts": null }, "geometry": { "type": "Point", "coordinates": [ -75.071, 40.0559 ] } },
{ "type": "Feature", "id": 58, "properties": { "gsId": 11415, "name": "olney charter hs", "type": "charter", "gradeRange": "12-Sep", "enrollment": 1672, "gsRating": 1, "parentRating": 5, "city": "Philadelphia", "state": "PA", "districtId": 960, "district": "Olney Charter High School", "districtNCESId": 4200843, "address": "100 West Duncannon Ave, \rPhiladelphia, PA  19120", "phone": "(215) 456-3014", "fax": null, "website": null, "ncesId": 420084000000.0, "overviewLink": "https:\/\/www.greatschools.org\/pennsylvania\/philadelphia\/11415-Olney-Charter-High-School\/?s_cid=gsapi", "ratingsLink": "https:\/\/www.greatschools.org\/school\/rating.page?state=PA&id=11415&s_cid=gsapi", "reviewsLink": "https:\/\/www.greatschools.org\/school\/parentReviews.page?state=PA&id=11415&s_cid=gsapi", "schoolStatsLink": "https:\/\/www.greatschools.org\/modperl\/achievement\/PA\/11415", "name_1": "olney charter hs", "BLAS": 37.76, "pts": 0 }, "geometry": { "type": "Point", "coordinates": [ -75.1215, 40.0284 ] } },
{ "type": "Feature", "id": 59, "properties": { "gsId": 2107, "name": "overbrook hs", "type": "public", "gradeRange": "12-Sep", "enrollment": 765, "gsRating": 1, "parentRating": 3, "city": "Philadelphia", "state": "PA", "districtId": 397, "district": "Philadelphia City School District", "districtNCESId": 4218990, "address": "5898 Lancaster Ave, \rPhiladelphia, PA  19131", "phone": "(215) 581-5507", "fax": null, "website": "https:\/\/webapps.philasd.org\/school_profile\/view\/4020", "ncesId": 421899000000.0, "overviewLink": "https:\/\/www.greatschools.org\/pennsylvania\/philadelphia\/2107-Overbrook-High-School\/?s_cid=gsapi", "ratingsLink": "https:\/\/www.greatschools.org\/school\/rating.page?state=PA&id=2107&s_cid=gsapi", "reviewsLink": "https:\/\/www.greatschools.org\/school\/parentReviews.page?state=PA&id=2107&s_cid=gsapi", "schoolStatsLink": "https:\/\/www.greatschools.org\/modperl\/achievement\/PA\/2107", "name_1": "overbrook hs", "BLAS": 34.85, "pts": 0 }, "geometry": { "type": "Point", "coordinates": [ -75.2385, 39.9811 ] } },
{ "type": "Feature", "id": 60, "properties": { "gsId": 2156, "name": "parkway northwest", "type": "public", "gradeRange": "12-Sep", "enrollment": 221, "gsRating": 3, "parentRating": 3, "city": "Philadelphia", "state": "PA", "districtId": 397, "district": "Philadelphia City School District", "districtNCESId": 4218990, "address": "1100 East Mt. Pleasant Ave, \rPhiladelphia, PA  19150", "phone": "(215) 248-6220", "fax": null, "website": null, "ncesId": 421899000000.0, "overviewLink": "https:\/\/www.greatschools.org\/pennsylvania\/philadelphia\/2156-Parkway-Northwest\/?s_cid=gsapi", "ratingsLink": "https:\/\/www.greatschools.org\/school\/rating.page?state=PA&id=2156&s_cid=gsapi", "reviewsLink": "https:\/\/www.greatschools.org\/school\/parentReviews.page?state=PA&id=2156&s_cid=gsapi", "schoolStatsLink": "https:\/\/www.greatschools.org\/modperl\/achievement\/PA\/2156", "name_1": "parkway northwest", "BLAS": 38.97, "pts": 0 }, "geometry": { "type": "Point", "coordinates": [ -75.1762, 40.0707 ] } },
{ "type": "Feature", "id": 61, "properties": { "gsId": 6411, "name": "parkway west", "type": "public", "gradeRange": "12-Sep", "enrollment": 292, "gsRating": 4, "parentRating": 3, "city": "Philadelphia", "state": "PA", "districtId": 397, "district": "Philadelphia City School District", "districtNCESId": 4218990, "address": "4725 Fairmont Ave, \rPhiladelphia, PA  19139", "phone": "(215) 471-5007", "fax": "(215) 471-5403", "website": null, "ncesId": 421899000000.0, "overviewLink": "https:\/\/www.greatschools.org\/pennsylvania\/philadelphia\/6411-Parkway-West\/?s_cid=gsapi", "ratingsLink": "https:\/\/www.greatschools.org\/school\/rating.page?state=PA&id=6411&s_cid=gsapi", "reviewsLink": "https:\/\/www.greatschools.org\/school\/parentReviews.page?state=PA&id=6411&s_cid=gsapi", "schoolStatsLink": "https:\/\/www.greatschools.org\/modperl\/achievement\/PA\/6411", "name_1": "parkway west", "BLAS": 60.57, "pts": 0 }, "geometry": { "type": "Point", "coordinates": [ -75.2155, 39.9642 ] } },
{ "type": "Feature", "id": 62, "properties": { "gsId": 6040, "name": "parkway-center city", "type": "public", "gradeRange": "12-Sep", "enrollment": 535, "gsRating": 5, "parentRating": 3, "city": "Philadelphia", "state": "PA", "districtId": 397, "district": "Philadelphia City School District", "districtNCESId": 4218990, "address": "540 North 13th St, \rPhiladelphia, PA  19123", "phone": "(215) 299-8801", "fax": null, "website": null, "ncesId": 421899000000.0, "overviewLink": "https:\/\/www.greatschools.org\/pennsylvania\/philadelphia\/6040-Parkway-Center-City\/?s_cid=gsapi", "ratingsLink": "https:\/\/www.greatschools.org\/school\/rating.page?state=PA&id=6040&s_cid=gsapi", "reviewsLink": "https:\/\/www.greatschools.org\/school\/parentReviews.page?state=PA&id=6040&s_cid=gsapi", "schoolStatsLink": "https:\/\/www.greatschools.org\/modperl\/achievement\/PA\/6040", "name_1": "parkway center city hs", "BLAS": 84.15, "pts": 2 }, "geometry": { "type": "Point", "coordinates": [ -75.1595, 39.9629 ] } },
{ "type": "Feature", "id": 63, "properties": { "gsId": 6038, "name": "paul robeson hs for human services", "type": "public", "gradeRange": "12-Sep", "enrollment": 274, "gsRating": 3, "parentRating": 4, "city": "Philadelphia", "state": "PA", "districtId": 397, "district": "Philadelphia City School District", "districtNCESId": 4218990, "address": "4125 Ludlow St, \rPhiladelphia, PA  19104", "phone": "(215) 823-8207", "fax": null, "website": "http:\/\/webgui.phila.k12.pa.us\/schools\/r\/robeson", "ncesId": 421899000000.0, "overviewLink": "https:\/\/www.greatschools.org\/pennsylvania\/philadelphia\/6038-Paul-Robeson-High-School-For-Human-Services\/?s_cid=gsapi", "ratingsLink": "https:\/\/www.greatschools.org\/school\/rating.page?state=PA&id=6038&s_cid=gsapi", "reviewsLink": "https:\/\/www.greatschools.org\/school\/parentReviews.page?state=PA&id=6038&s_cid=gsapi", "schoolStatsLink": "https:\/\/www.greatschools.org\/modperl\/achievement\/PA\/6038", "name_1": "robeson hs for human services", "BLAS": 57.28, "pts": 0 }, "geometry": { "type": "Point", "coordinates": [ -75.2048, 39.9568 ] } },
{ "type": "Feature", "id": 64, "properties": { "gsId": 2077, "name": "penn treaty middle school", "type": "public", "gradeRange": "12-Jun", "enrollment": 538, "gsRating": 1, "parentRating": 3, "city": "Philadelphia", "state": "PA", "districtId": 397, "district": "Philadelphia City School District", "districtNCESId": 4218990, "address": "600 East Thompson St, \rPhiladelphia, PA  19125", "phone": "(215) 291-4715", "fax": null, "website": null, "ncesId": 421899000000.0, "overviewLink": "https:\/\/www.greatschools.org\/pennsylvania\/philadelphia\/2077-Penn-Treaty-Middle-School\/?s_cid=gsapi", "ratingsLink": "https:\/\/www.greatschools.org\/school\/rating.page?state=PA&id=2077&s_cid=gsapi", "reviewsLink": "https:\/\/www.greatschools.org\/school\/parentReviews.page?state=PA&id=2077&s_cid=gsapi", "schoolStatsLink": "https:\/\/www.greatschools.org\/modperl\/achievement\/PA\/2077", "name_1": "penn treaty school", "BLAS": 51.68, "pts": 0 }, "geometry": { "type": "Point", "coordinates": [ -75.1278, 39.9728 ] } },
{ "type": "Feature", "id": 65, "properties": { "gsId": 5142, "name": "philadelphia academy cs", "type": "charter", "gradeRange": "K-12", "enrollment": 1174, "gsRating": 6, "parentRating": 4, "city": "Philadelphia", "state": "PA", "districtId": 665, "district": "Philadelphia Academy Cs", "districtNCESId": 4200061, "address": "11000 Roosevelt Blvd, \rPhiladelphia, PA  19116", "phone": "(215) 676-8320", "fax": null, "website": null, "ncesId": 420006000000.0, "overviewLink": "https:\/\/www.greatschools.org\/pennsylvania\/philadelphia\/5142-Philadelphia-Academy-Cs\/?s_cid=gsapi", "ratingsLink": "https:\/\/www.greatschools.org\/school\/rating.page?state=PA&id=5142&s_cid=gsapi", "reviewsLink": "https:\/\/www.greatschools.org\/school\/parentReviews.page?state=PA&id=5142&s_cid=gsapi", "schoolStatsLink": "https:\/\/www.greatschools.org\/modperl\/achievement\/PA\/5142", "name_1": "philadelphia academy cs", "BLAS": 72.48, "pts": 1 }, "geometry": { "type": "Point", "coordinates": [ -75.0099, 40.1039 ] } },
{ "type": "Feature", "id": 66, "properties": { "gsId": 5284, "name": "philadelphia electrical & tech charter hs", "type": "charter", "gradeRange": "12-Sep", "enrollment": 621, "gsRating": 4, "parentRating": 4, "city": "Philadelphia", "state": "PA", "districtId": 712, "district": "Philadelphia Electrical & Technical Chs", "districtNCESId": 4200107, "address": "142022 Chestnut St, \rPhiladelphia, PA  19102", "phone": "(267) 514-1824", "fax": null, "website": null, "ncesId": 420011000000.0, "overviewLink": "https:\/\/www.greatschools.org\/pennsylvania\/philadelphia\/5284-Philadelphia-Electrical-&-Tech-Charter-High-School\/?s_cid=gsapi", "ratingsLink": "https:\/\/www.greatschools.org\/school\/rating.page?state=PA&id=5284&s_cid=gsapi", "reviewsLink": "https:\/\/www.greatschools.org\/school\/parentReviews.page?state=PA&id=5284&s_cid=gsapi", "schoolStatsLink": "https:\/\/www.greatschools.org\/modperl\/achievement\/PA\/5284", "name_1": "philadelphia electrical & technology chs", "BLAS": 64.26, "pts": 0 }, "geometry": { "type": "Point", "coordinates": [ -75.1651, 39.9507 ] } },
{ "type": "Feature", "id": 67, "properties": { "gsId": 11400, "name": "philadelphia learning academy - north", "type": "public", "gradeRange": "12-Jul", "enrollment": null, "gsRating": null, "parentRating": null, "city": "Philadelphia", "state": "PA", "districtId": 397, "district": "Philadelphia City School District", "districtNCESId": 4218990, "address": "4224 North Front St, \rPhiladelphia, PA  19140", "phone": "(267) 336-6020", "fax": null, "website": null, "ncesId": 421899000000.0, "overviewLink": "https:\/\/www.greatschools.org\/pennsylvania\/philadelphia\/11400-Philadelphia-Learning-Academy---North\/?s_cid=gsapi", "ratingsLink": "https:\/\/www.greatschools.org\/school\/rating.page?state=PA&id=11400&s_cid=gsapi", "reviewsLink": "https:\/\/www.greatschools.org\/school\/parentReviews.page?state=PA&id=11400&s_cid=gsapi", "schoolStatsLink": "https:\/\/www.greatschools.org\/modperl\/achievement\/PA\/11400", "name_1": "philadelphia learning academy - north", "BLAS": 43.0, "pts": 0 }, "geometry": { "type": "Point", "coordinates": [ -75.126, 40.0141 ] } },
{ "type": "Feature", "id": 68, "properties": { "gsId": 11399, "name": "philadelphia learning academy - south", "type": "public", "gradeRange": "12-Jul", "enrollment": null, "gsRating": null, "parentRating": null, "city": "Philadelphia", "state": "PA", "districtId": 397, "district": "Philadelphia City School District", "districtNCESId": 4218990, "address": "4300 Westminster Ave, \rPhiladelphia, PA  19113", "phone": "(215) 952-6571", "fax": null, "website": null, "ncesId": 421899000000.0, "overviewLink": "https:\/\/www.greatschools.org\/pennsylvania\/philadelphia\/11399-Philadelphia-Learning-Academy---South\/?s_cid=gsapi", "ratingsLink": "https:\/\/www.greatschools.org\/school\/rating.page?state=PA&id=11399&s_cid=gsapi", "reviewsLink": "https:\/\/www.greatschools.org\/school\/parentReviews.page?state=PA&id=11399&s_cid=gsapi", "schoolStatsLink": "https:\/\/www.greatschools.org\/modperl\/achievement\/PA\/11399", "name_1": "philadelphia learning academy - south", "BLAS": 37.5, "pts": 0 }, "geometry": { "type": "Point", "coordinates": [ -75.2103, 39.9698 ] } },
{ "type": "Feature", "id": 69, "properties": { "gsId": 6413, "name": "philadelphia military academy at elverson", "type": "public", "gradeRange": "12-Sep", "enrollment": 305, "gsRating": 4, "parentRating": 3, "city": "Philadelphia", "state": "PA", "districtId": 397, "district": "Philadelphia City School District", "districtNCESId": 4218990, "address": "21182160 North 13th St, \rPhiladelphia, PA  19122", "phone": "(215) 684-5091", "fax": null, "website": null, "ncesId": 421899000000.0, "overviewLink": "https:\/\/www.greatschools.org\/pennsylvania\/philadelphia\/6413-Philadelphia-Military-Academy-At-Elverson\/?s_cid=gsapi", "ratingsLink": "https:\/\/www.greatschools.org\/school\/rating.page?state=PA&id=6413&s_cid=gsapi", "reviewsLink": "https:\/\/www.greatschools.org\/school\/parentReviews.page?state=PA&id=6413&s_cid=gsapi", "schoolStatsLink": "https:\/\/www.greatschools.org\/modperl\/achievement\/PA\/6413", "name_1": "philadelphia military academy at elverson", "BLAS": 55.09, "pts": 0 }, "geometry": { "type": "Point", "coordinates": [ -75.1544, 39.9857 ] } },
{ "type": "Feature", "id": 70, "properties": { "gsId": 5200, "name": "philadelphia performing arts cs", "type": "charter", "gradeRange": "K-12", "enrollment": 2135, "gsRating": 4, "parentRating": 3, "city": "Philadelphia", "state": "PA", "districtId": 678, "district": "Philadelphia Performing Arts Cs", "districtNCESId": 4200074, "address": "2600 South Broad St, \rPhiladelphia, PA  19145", "phone": "(215) 551-4000", "fax": null, "website": null, "ncesId": 420007000000.0, "overviewLink": "https:\/\/www.greatschools.org\/pennsylvania\/philadelphia\/5200-Philadelphia-Performing-Arts-Cs\/?s_cid=gsapi", "ratingsLink": "https:\/\/www.greatschools.org\/school\/rating.page?state=PA&id=5200&s_cid=gsapi", "reviewsLink": "https:\/\/www.greatschools.org\/school\/parentReviews.page?state=PA&id=5200&s_cid=gsapi", "schoolStatsLink": "https:\/\/www.greatschools.org\/modperl\/achievement\/PA\/5200", "name_1": "philadelphia performing arts cs", "BLAS": 71.15, "pts": 1 }, "geometry": { "type": "Point", "coordinates": [ -75.1714, 39.9179 ] } },
{ "type": "Feature", "id": 71, "properties": { "gsId": 36, "name": "preparatory cs of mathematics science tech and", "type": "charter", "gradeRange": "12-Sep", "enrollment": 623, "gsRating": 5, "parentRating": 4, "city": "Philadelphia", "state": "PA", "districtId": 35, "district": "Preparatory Cs Of Mathematics Science Technical And Careers", "districtNCESId": 4200036, "address": "1928 Point Breeze Ave, \rPhiladelphia, PA  19145", "phone": "(215) 334-6144", "fax": null, "website": null, "ncesId": 420004000000.0, "overviewLink": "https:\/\/www.greatschools.org\/pennsylvania\/philadelphia\/36-Preparatory-Cs-Of-Mathematics-Science-Tech-And\/?s_cid=gsapi", "ratingsLink": "https:\/\/www.greatschools.org\/school\/rating.page?state=PA&id=36&s_cid=gsapi", "reviewsLink": "https:\/\/www.greatschools.org\/school\/parentReviews.page?state=PA&id=36&s_cid=gsapi", "schoolStatsLink": "https:\/\/www.greatschools.org\/modperl\/achievement\/PA\/36", "name_1": "preparatory cs of mathematics, science, tech, and careers", "BLAS": 50.8, "pts": 0 }, "geometry": { "type": "Point", "coordinates": [ -75.1868, 39.9285 ] } },
{ "type": "Feature", "id": 72, "properties": { "gsId": 6402, "name": "randolph a. philip avt hs", "type": "public", "gradeRange": "12-Sep", "enrollment": 536, "gsRating": 2, "parentRating": 4, "city": "Philadelphia", "state": "PA", "districtId": 397, "district": "Philadelphia City School District", "districtNCESId": 4218990, "address": "3101 Henry Ave, \rPhiladelphia, PA  19129", "phone": "(215) 227-4407", "fax": null, "website": null, "ncesId": 421899000000.0, "overviewLink": "https:\/\/www.greatschools.org\/pennsylvania\/philadelphia\/6402-Randolph-A.-Philip-Avt-High-School\/?s_cid=gsapi", "ratingsLink": "https:\/\/www.greatschools.org\/school\/rating.page?state=PA&id=6402&s_cid=gsapi", "reviewsLink": "https:\/\/www.greatschools.org\/school\/parentReviews.page?state=PA&id=6402&s_cid=gsapi", "schoolStatsLink": "https:\/\/www.greatschools.org\/modperl\/achievement\/PA\/6402", "name_1": "randolph, a. philip area vocational-technical hs", "BLAS": 56.99, "pts": 0 }, "geometry": { "type": "Point", "coordinates": [ -75.1792, 40.009 ] } },
{ "type": "Feature", "id": 73, "properties": { "gsId": 2095, "name": "roxborough hs", "type": "public", "gradeRange": "12-Sep", "enrollment": 562, "gsRating": 1, "parentRating": 3, "city": "Philadelphia", "state": "PA", "districtId": 397, "district": "Philadelphia City School District", "districtNCESId": 4218990, "address": "6498 Ridge Ave, \rPhiladelphia, PA  19128", "phone": "(215) 487-4464", "fax": null, "website": "http:\/\/webgui.phila.k12.pa.us\/schools\/r\/roxborough", "ncesId": 421899000000.0, "overviewLink": "https:\/\/www.greatschools.org\/pennsylvania\/philadelphia\/2095-Roxborough-High-School\/?s_cid=gsapi", "ratingsLink": "https:\/\/www.greatschools.org\/school\/rating.page?state=PA&id=2095&s_cid=gsapi", "reviewsLink": "https:\/\/www.greatschools.org\/school\/parentReviews.page?state=PA&id=2095&s_cid=gsapi", "schoolStatsLink": "https:\/\/www.greatschools.org\/modperl\/achievement\/PA\/2095", "name_1": "roxborough hs", "BLAS": 33.14, "pts": 0 }, "geometry": { "type": "Point", "coordinates": [ -75.2228, 40.0376 ] } },
{ "type": "Feature", "id": 74, "properties": { "gsId": 11487, "name": "sankofa freedom academy charter school", "type": "charter", "gradeRange": "K-12", "enrollment": 650, "gsRating": 3, "parentRating": 4, "city": "Philadelphia", "state": "PA", "districtId": 855, "district": "Sankofa Freedom Academy Charter School", "districtNCESId": 4200816, "address": "2501 Kensington Ave., \rPhiladelphia, PA  19125", "phone": "(215) 288-2001", "fax": "(215) 288-2099", "website": "www.sfacs.us", "ncesId": 420082000000.0, "overviewLink": "https:\/\/www.greatschools.org\/pennsylvania\/philadelphia\/11487-Sankofa-Freedom-Academy-Charter-School\/?s_cid=gsapi", "ratingsLink": "https:\/\/www.greatschools.org\/school\/rating.page?state=PA&id=11487&s_cid=gsapi", "reviewsLink": "https:\/\/www.greatschools.org\/school\/parentReviews.page?state=PA&id=11487&s_cid=gsapi", "schoolStatsLink": "https:\/\/www.greatschools.org\/modperl\/achievement\/PA\/11487", "name_1": "sankofa freedom academy charter school", "BLAS": 55.93, "pts": 0 }, "geometry": { "type": "Point", "coordinates": [ -75.1286, 39.987186 ] } },
{ "type": "Feature", "id": 75, "properties": { "gsId": 2111, "name": "saul w b agricultural school", "type": "public", "gradeRange": "12-Sep", "enrollment": 510, "gsRating": 4, "parentRating": 4, "city": "Philadelphia", "state": "PA", "districtId": 397, "district": "Philadelphia City School District", "districtNCESId": 4218990, "address": "7100 Henry Ave, \rPhiladelphia, PA  19128", "phone": "(215) 487-4467", "fax": null, "website": null, "ncesId": 421899000000.0, "overviewLink": "https:\/\/www.greatschools.org\/pennsylvania\/philadelphia\/2111-Saul-W-B-Agricultural-School\/?s_cid=gsapi", "ratingsLink": "https:\/\/www.greatschools.org\/school\/rating.page?state=PA&id=2111&s_cid=gsapi", "reviewsLink": "https:\/\/www.greatschools.org\/school\/parentReviews.page?state=PA&id=2111&s_cid=gsapi", "schoolStatsLink": "https:\/\/www.greatschools.org\/modperl\/achievement\/PA\/2111", "name_1": "saul w b agricultural school", "BLAS": 51.64, "pts": 0 }, "geometry": { "type": "Point", "coordinates": [ -75.2215, 40.0493 ] } },
{ "type": "Feature", "id": 76, "properties": { "gsId": 2078, "name": "sayre william l middle school", "type": "public", "gradeRange": "12-Sep", "enrollment": 536, "gsRating": 1, "parentRating": 3, "city": "Philadelphia", "state": "PA", "districtId": 397, "district": "Philadelphia City School District", "districtNCESId": 4218990, "address": "5800 Walnut St, \rPhiladelphia, PA  19139", "phone": "(215) 471-2904", "fax": null, "website": null, "ncesId": 421899000000.0, "overviewLink": "https:\/\/www.greatschools.org\/pennsylvania\/philadelphia\/2078-Sayre-William-L-Middle-School\/?s_cid=gsapi", "ratingsLink": "https:\/\/www.greatschools.org\/school\/rating.page?state=PA&id=2078&s_cid=gsapi", "reviewsLink": "https:\/\/www.greatschools.org\/school\/parentReviews.page?state=PA&id=2078&s_cid=gsapi", "schoolStatsLink": "https:\/\/www.greatschools.org\/modperl\/achievement\/PA\/2078", "name_1": "sayre william l ms", "BLAS": 32.35, "pts": 0 }, "geometry": { "type": "Point", "coordinates": [ -75.2386, 39.9581 ] } },
{ "type": "Feature", "id": 77, "properties": { "gsId": 6493, "name": "school of the future", "type": "public", "gradeRange": "12-Sep", "enrollment": 606, "gsRating": 2, "parentRating": 4, "city": "Philadelphia", "state": "PA", "districtId": 397, "district": "Philadelphia City School District", "districtNCESId": 4218990, "address": "4021 Parkside Ave, \rPhiladelphia, PA  19104", "phone": "(215) 823-5502", "fax": null, "website": "http:\/\/www.phila.k12.pa.us\/", "ncesId": 421899000000.0, "overviewLink": "https:\/\/www.greatschools.org\/pennsylvania\/philadelphia\/6493-School-Of-The-Future\/?s_cid=gsapi", "ratingsLink": "https:\/\/www.greatschools.org\/school\/rating.page?state=PA&id=6493&s_cid=gsapi", "reviewsLink": "https:\/\/www.greatschools.org\/school\/parentReviews.page?state=PA&id=6493&s_cid=gsapi", "schoolStatsLink": "https:\/\/www.greatschools.org\/modperl\/achievement\/PA\/6493", "name_1": "school of the future", "BLAS": 37.92, "pts": 0 }, "geometry": { "type": "Point", "coordinates": [ -75.2035, 39.9753 ] } },
{ "type": "Feature", "id": 78, "properties": { "gsId": 6494, "name": "science leadership academy", "type": "public", "gradeRange": "12-Sep", "enrollment": 495, "gsRating": 8, "parentRating": 5, "city": "Philadelphia", "state": "PA", "districtId": 397, "district": "Philadelphia City School District", "districtNCESId": 4218990, "address": "2130 Arch St, \rPhiladelphia, PA  19103", "phone": "(215) 979-5620", "fax": null, "website": null, "ncesId": 421899000000.0, "overviewLink": "https:\/\/www.greatschools.org\/pennsylvania\/philadelphia\/6494-Science-Leadership-Academy\/?s_cid=gsapi", "ratingsLink": "https:\/\/www.greatschools.org\/school\/rating.page?state=PA&id=6494&s_cid=gsapi", "reviewsLink": "https:\/\/www.greatschools.org\/school\/parentReviews.page?state=PA&id=6494&s_cid=gsapi", "schoolStatsLink": "https:\/\/www.greatschools.org\/modperl\/achievement\/PA\/6494", "name_1": "science leadership academy", "BLAS": 68.96, "pts": 0 }, "geometry": { "type": "Point", "coordinates": [ -75.1761, 39.9558 ] } },
{ "type": "Feature", "id": 79, "properties": { "gsId": 2109, "name": "south philadelphia hs", "type": "public", "gradeRange": "12-Sep", "enrollment": 778, "gsRating": 1, "parentRating": 4, "city": "Philadelphia", "state": "PA", "districtId": 397, "district": "Philadelphia City School District", "districtNCESId": 4218990, "address": "2101 South Broad St, \rPhiladelphia, PA  19148", "phone": "(215) 952-6220", "fax": null, "website": "http:\/\/webgui.phila.k12.pa.us\/schools\/s\/southphila", "ncesId": 421899000000.0, "overviewLink": "https:\/\/www.greatschools.org\/pennsylvania\/philadelphia\/2109-South-Philadelphia-High-School\/?s_cid=gsapi", "ratingsLink": "https:\/\/www.greatschools.org\/school\/rating.page?state=PA&id=2109&s_cid=gsapi", "reviewsLink": "https:\/\/www.greatschools.org\/school\/parentReviews.page?state=PA&id=2109&s_cid=gsapi", "schoolStatsLink": "https:\/\/www.greatschools.org\/modperl\/achievement\/PA\/2109", "name_1": "south philadelphia hs", "BLAS": 32.73, "pts": 0 }, "geometry": { "type": "Point", "coordinates": [ -75.1682, 39.9234 ] } },
{ "type": "Feature", "id": 80, "properties": { "gsId": 2090, "name": "strawberry mansion hs", "type": "public", "gradeRange": "12-Sep", "enrollment": 437, "gsRating": 1, "parentRating": 3, "city": "Philadelphia", "state": "PA", "districtId": 397, "district": "Philadelphia City School District", "districtNCESId": 4218990, "address": "3133 Ridge Ave, \rPhiladelphia, PA  19132", "phone": "(215) 684-5089", "fax": null, "website": "http:\/\/webgui.phila.k12.pa.us\/schools\/s\/strawberry", "ncesId": 421899000000.0, "overviewLink": "https:\/\/www.greatschools.org\/pennsylvania\/philadelphia\/2090-Strawberry-Mansion-High-School\/?s_cid=gsapi", "ratingsLink": "https:\/\/www.greatschools.org\/school\/rating.page?state=PA&id=2090&s_cid=gsapi", "reviewsLink": "https:\/\/www.greatschools.org\/school\/parentReviews.page?state=PA&id=2090&s_cid=gsapi", "schoolStatsLink": "https:\/\/www.greatschools.org\/modperl\/achievement\/PA\/2090", "name_1": "strawberry mansion hs", "BLAS": 39.88, "pts": 0 }, "geometry": { "type": "Point", "coordinates": [ -75.1839, 39.9902 ] } },
{ "type": "Feature", "id": 81, "properties": { "gsId": 5252, "name": "swenson arts & technology hs", "type": "public", "gradeRange": "12-Sep", "enrollment": 615, "gsRating": 2, "parentRating": 4, "city": "Philadelphia", "state": "PA", "districtId": 397, "district": "Philadelphia City School District", "districtNCESId": 4218990, "address": "2750 Red Lion Rd, \rPhiladelphia, PA  19114", "phone": "(215) 961-2009", "fax": null, "website": null, "ncesId": 421899000000.0, "overviewLink": "https:\/\/www.greatschools.org\/pennsylvania\/philadelphia\/5252-Swenson-Arts-&-Technology-High-School\/?s_cid=gsapi", "ratingsLink": "https:\/\/www.greatschools.org\/school\/rating.page?state=PA&id=5252&s_cid=gsapi", "reviewsLink": "https:\/\/www.greatschools.org\/school\/parentReviews.page?state=PA&id=5252&s_cid=gsapi", "schoolStatsLink": "https:\/\/www.greatschools.org\/modperl\/achievement\/PA\/5252", "name_1": "swenson arts and technology hs", "BLAS": 52.35, "pts": 0 }, "geometry": { "type": "Point", "coordinates": [ -75.0143, 40.0923 ] } },
{ "type": "Feature", "id": 82, "properties": { "gsId": 11391, "name": "tacony academy charter school", "type": "charter", "gradeRange": "K-12", "enrollment": 1051, "gsRating": 4, "parentRating": 4, "city": "Philadelphia", "state": "PA", "districtId": 830, "district": "Tacony Academy Charter School", "districtNCESId": 4200821, "address": "1300 Rhawn St, \rPhiladelphia, PA  19111", "phone": "(215) 742-5100", "fax": null, "website": null, "ncesId": 420082000000.0, "overviewLink": "https:\/\/www.greatschools.org\/pennsylvania\/philadelphia\/11391-Tacony-Academy-Charter-School\/?s_cid=gsapi", "ratingsLink": "https:\/\/www.greatschools.org\/school\/rating.page?state=PA&id=11391&s_cid=gsapi", "reviewsLink": "https:\/\/www.greatschools.org\/school\/parentReviews.page?state=PA&id=11391&s_cid=gsapi", "schoolStatsLink": "https:\/\/www.greatschools.org\/modperl\/achievement\/PA\/11391", "name_1": "tacony academy charter school", "BLAS": 59.87, "pts": 0 }, "geometry": { "type": "Point", "coordinates": [ -75.0677, 40.0689 ] } },
{ "type": "Feature", "id": 83, "properties": { "gsId": 11797, "name": "the school district of philadelphia's virtual academy", "type": "public", "gradeRange": "12-Jun", "enrollment": 350, "gsRating": 2, "parentRating": null, "city": "Philadelphia", "state": "PA", "districtId": 397, "district": "Philadelphia City School District", "districtNCESId": 4218990, "address": "440 North Broad St, \rPhiladelphia, PA  19130", "phone": "(215) 400-3110", "fax": "(215) 400-3111", "website": "http:\/\/philasd.org\/pva", "ncesId": 421899000000.0, "overviewLink": "https:\/\/www.greatschools.org\/pennsylvania\/philadelphia\/11797-The-School-District-Of-Philadelphia's-Virtual-Academy\/?s_cid=gsapi", "ratingsLink": "https:\/\/www.greatschools.org\/school\/rating.page?state=PA&id=11797&s_cid=gsapi", "reviewsLink": "https:\/\/www.greatschools.org\/school\/parentReviews.page?state=PA&id=11797&s_cid=gsapi", "schoolStatsLink": "https:\/\/www.greatschools.org\/modperl\/achievement\/PA\/11797", "name_1": "the sd of philadelphia virtual academy", "BLAS": 34.38, "pts": 0 }, "geometry": { "type": "Point", "coordinates": [ -75.1626, 39.961 ] } },
{ "type": "Feature", "id": 84, "properties": { "gsId": 14919, "name": "the workshop school", "type": "public", "gradeRange": "12-Sep", "enrollment": 142, "gsRating": 1, "parentRating": null, "city": "Philadelphia", "state": "PA", "districtId": 397, "district": "Philadelphia City School District", "districtNCESId": 4218990, "address": "221 South Hanson St, \rPhiladelphia, PA  19139", "phone": "(215) 605-6850", "fax": null, "website": null, "ncesId": 421899000000.0, "overviewLink": "https:\/\/www.greatschools.org\/pennsylvania\/philadelphia\/14919-The-Workshop-School\/?s_cid=gsapi", "ratingsLink": "https:\/\/www.greatschools.org\/school\/rating.page?state=PA&id=14919&s_cid=gsapi", "reviewsLink": "https:\/\/www.greatschools.org\/school\/parentReviews.page?state=PA&id=14919&s_cid=gsapi", "schoolStatsLink": "https:\/\/www.greatschools.org\/modperl\/achievement\/PA\/14919", "name_1": "the workshop school", "BLAS": 42.92, "pts": 0 }, "geometry": { "type": "Point", "coordinates": [ -75.2186, 39.9553 ] } },
{ "type": "Feature", "id": 85, "properties": { "gsId": 11409, "name": "truebright science academy cs", "type": "charter", "gradeRange": "12-Jul", "enrollment": 324, "gsRating": null, "parentRating": 3, "city": "Philadelphia", "state": "PA", "districtId": 836, "district": "Truebright Science Academy Cs", "districtNCESId": 4200759, "address": "407 E Roosevelt Blvd, \rPhiladelphia, PA  19132", "phone": "(215) 455-3437", "fax": "(215) 455-0292", "website": "ww.truebright.org", "ncesId": 420076000000.0, "overviewLink": "https:\/\/www.greatschools.org\/pennsylvania\/philadelphia\/11409-Truebright-Science-Academy-Cs\/?s_cid=gsapi", "ratingsLink": "https:\/\/www.greatschools.org\/school\/rating.page?state=PA&id=11409&s_cid=gsapi", "reviewsLink": "https:\/\/www.greatschools.org\/school\/parentReviews.page?state=PA&id=11409&s_cid=gsapi", "schoolStatsLink": "https:\/\/www.greatschools.org\/modperl\/achievement\/PA\/11409", "name_1": null, "BLAS": null, "pts": null }, "geometry": { "type": "Point", "coordinates": [ -75.11716, 40.02685 ] } },
{ "type": "Feature", "id": 86, "properties": { "gsId": 2065, "name": "universal audenried charter school", "type": "charter", "gradeRange": "12-Sep", "enrollment": 699, "gsRating": 1, "parentRating": 5, "city": "Philadelphia", "state": "PA", "districtId": 964, "district": "Universal Audenried Charter School", "districtNCESId": 4200856, "address": "3301 Tasker St, \rPhiladelphia, PA  19145", "phone": "(215) 952-4801", "fax": null, "website": null, "ncesId": 420086000000.0, "overviewLink": "https:\/\/www.greatschools.org\/pennsylvania\/philadelphia\/2065-Universal-Audenried-Charter-School\/?s_cid=gsapi", "ratingsLink": "https:\/\/www.greatschools.org\/school\/rating.page?state=PA&id=2065&s_cid=gsapi", "reviewsLink": "https:\/\/www.greatschools.org\/school\/parentReviews.page?state=PA&id=2065&s_cid=gsapi", "schoolStatsLink": "https:\/\/www.greatschools.org\/modperl\/achievement\/PA\/2065", "name_1": "universal audenried charter school", "BLAS": 38.47, "pts": 0 }, "geometry": { "type": "Point", "coordinates": [ -75.1994, 39.9345 ] } },
{ "type": "Feature", "id": 87, "properties": { "gsId": 5206, "name": "walter d palmer leadership learning partnership cs", "type": "charter", "gradeRange": "PK-12", "enrollment": 1144, "gsRating": null, "parentRating": 3, "city": "Philadelphia", "state": "PA", "districtId": 684, "district": "Walter D Palmer Leadership Learning Partners Cs", "districtNCESId": 4200080, "address": "910 North 6th St, \rPhiladelphia, PA  19123", "phone": "(215) 627-7434", "fax": null, "website": "http:\/\/www.wdp-llpcs.org", "ncesId": 420008000000.0, "overviewLink": "https:\/\/www.greatschools.org\/pennsylvania\/philadelphia\/5206-Walter-D-Palmer-Leadership-Learning-Partnership-Cs\/?s_cid=gsapi", "ratingsLink": "https:\/\/www.greatschools.org\/school\/rating.page?state=PA&id=5206&s_cid=gsapi", "reviewsLink": "https:\/\/www.greatschools.org\/school\/parentReviews.page?state=PA&id=5206&s_cid=gsapi", "schoolStatsLink": "https:\/\/www.greatschools.org\/modperl\/achievement\/PA\/5206", "name_1": null, "BLAS": null, "pts": null }, "geometry": { "type": "Point", "coordinates": [ -75.1475, 39.9683 ] } },
{ "type": "Feature", "id": 88, "properties": { "gsId": 2144, "name": "washington george hs", "type": "public", "gradeRange": "12-Sep", "enrollment": 1508, "gsRating": 2, "parentRating": 4, "city": "Philadelphia", "state": "PA", "districtId": 397, "district": "Philadelphia City School District", "districtNCESId": 4218990, "address": "10175 Bustleon Ave, \rPhiladelphia, PA  19116", "phone": "(215) 961-2001", "fax": null, "website": null, "ncesId": 421899000000.0, "overviewLink": "https:\/\/www.greatschools.org\/pennsylvania\/philadelphia\/2144-Washington-George-High-School\/?s_cid=gsapi", "ratingsLink": "https:\/\/www.greatschools.org\/school\/rating.page?state=PA&id=2144&s_cid=gsapi", "reviewsLink": "https:\/\/www.greatschools.org\/school\/parentReviews.page?state=PA&id=2144&s_cid=gsapi", "schoolStatsLink": "https:\/\/www.greatschools.org\/modperl\/achievement\/PA\/2144", "name_1": "washington george hs", "BLAS": 48.45, "pts": 0 }, "geometry": { "type": "Point", "coordinates": [ -75.0261, 40.1057 ] } },
{ "type": "Feature", "id": 89, "properties": { "gsId": 2110, "name": "west philadelphia hs", "type": "public", "gradeRange": "12-Sep", "enrollment": 575, "gsRating": 2, "parentRating": 3, "city": "Philadelphia", "state": "PA", "districtId": 397, "district": "Philadelphia City School District", "districtNCESId": 4218990, "address": "4901 Chestnut St, \rPhiladelphia, PA  19139", "phone": "(215) 471-2902", "fax": null, "website": "http:\/\/webgui.phila.k12.pa.us\/schools\/w\/westphila", "ncesId": 421899000000.0, "overviewLink": "https:\/\/www.greatschools.org\/pennsylvania\/philadelphia\/2110-West-Philadelphia-High-School\/?s_cid=gsapi", "ratingsLink": "https:\/\/www.greatschools.org\/school\/rating.page?state=PA&id=2110&s_cid=gsapi", "reviewsLink": "https:\/\/www.greatschools.org\/school\/parentReviews.page?state=PA&id=2110&s_cid=gsapi", "schoolStatsLink": "https:\/\/www.greatschools.org\/modperl\/achievement\/PA\/2110", "name_1": "west philadelphia hs", "BLAS": 49.05, "pts": 0 }, "geometry": { "type": "Point", "coordinates": [ -75.2194, 39.9578 ] } },
{ "type": "Feature", "id": 90, "properties": { "gsId": 2006, "name": "widener memorial school", "type": "public", "gradeRange": "K-12", "enrollment": 165, "gsRating": 1, "parentRating": 3, "city": "Philadelphia", "state": "PA", "districtId": 397, "district": "Philadelphia City School District", "districtNCESId": 4218990, "address": "1450 West Olney Ave, \rPhiladelphia, PA  19141", "phone": "(215) 456-3015", "fax": null, "website": "http:\/\/webgui.phila.k12.pa.us\/schools\/w\/widener", "ncesId": 421899000000.0, "overviewLink": "https:\/\/www.greatschools.org\/pennsylvania\/philadelphia\/2006-Widener-Memorial-School\/?s_cid=gsapi", "ratingsLink": "https:\/\/www.greatschools.org\/school\/rating.page?state=PA&id=2006&s_cid=gsapi", "reviewsLink": "https:\/\/www.greatschools.org\/school\/parentReviews.page?state=PA&id=2006&s_cid=gsapi", "schoolStatsLink": "https:\/\/www.greatschools.org\/modperl\/achievement\/PA\/2006", "name_1": "widener memorial school", "BLAS": 40.13, "pts": 0 }, "geometry": { "type": "Point", "coordinates": [ -75.1472, 40.0367 ] } },
{ "type": "Feature", "id": 91, "properties": { "gsId": 15, "name": "world communications cs", "type": "charter", "gradeRange": "12-Jun", "enrollment": 535, "gsRating": 1, "parentRating": 3, "city": "Philadelphia", "state": "PA", "districtId": 14, "district": "World Communications Cs", "districtNCESId": 4200015, "address": "51220 South Broad St, \rPhiladelphia, PA  19146", "phone": "(215) 735-3198", "fax": null, "website": null, "ncesId": 420002000000.0, "overviewLink": "https:\/\/www.greatschools.org\/pennsylvania\/philadelphia\/15-World-Communications-Cs\/?s_cid=gsapi", "ratingsLink": "https:\/\/www.greatschools.org\/school\/rating.page?state=PA&id=15&s_cid=gsapi", "reviewsLink": "https:\/\/www.greatschools.org\/school\/parentReviews.page?state=PA&id=15&s_cid=gsapi", "schoolStatsLink": "https:\/\/www.greatschools.org\/modperl\/achievement\/PA\/15", "name_1": "world communications cs", "BLAS": 38.49, "pts": 0 }, "geometry": { "type": "Point", "coordinates": [ -75.1658, 39.9439 ] } },
{ "type": "Feature", "id": 92, "properties": { "gsId": 16, "name": "youth build phila cs", "type": "charter", "gradeRange": "12", "enrollment": 233, "gsRating": null, "parentRating": 5, "city": "Philadelphia", "state": "PA", "districtId": 15, "district": "Youth Build Phila Cs", "districtNCESId": 4200016, "address": "1231 North Broad St 5th Floor, \rPhiladelphia, PA  19122", "phone": "(215) 627-8671", "fax": null, "website": null, "ncesId": 420002000000.0, "overviewLink": "https:\/\/www.greatschools.org\/pennsylvania\/philadelphia\/16-Youth-Build-Phila-Cs\/?s_cid=gsapi", "ratingsLink": "https:\/\/www.greatschools.org\/school\/rating.page?state=PA&id=16&s_cid=gsapi", "reviewsLink": "https:\/\/www.greatschools.org\/school\/parentReviews.page?state=PA&id=16&s_cid=gsapi", "schoolStatsLink": "https:\/\/www.greatschools.org\/modperl\/achievement\/PA\/16", "name_1": null, "BLAS": null, "pts": null }, "geometry": { "type": "Point", "coordinates": [ -75.1587, 39.9729 ] } }
]
}
